X,Y,Facility,County,Address,City,ZipCode,Type,ResidentialWellsSampled,SiteLead,SiteLeadEmail,SiteLeadPhone,Hyperlink,Longitude,Latitude,Tier,SiteType,Status,Location,Military,Comment,FacilityOrder,FacilityDate,GlobalID,SiteBackground,DrinkingWaterInformation,AnticipatedActivities,OBJECTID
530645.8136,283883.2485,Belmont - House St.,Kent County,1855 House Street,Rockford,49341,Landfill,Yes,Leah Gies,giesl1@michigan.gov,616-215-4781,https://www.michigan.gov/pfasresponse/investigations/sites-aoi/kent-county/house-street-disposal-area,-85.621686,43.105358,1,Site,Final,Rockford,No,,,,{FFD13567-4CAC-4D0D-B901-82D957E592D3},,,,1
535639.9539,285813.4498,Rockford Tannery,Kent County,123 North Main Street,Rockford,49341,Tannery,No,Leah Gies,giesl1@michigan.gov,616-215-4781,https://www.michigan.gov/pfasresponse/investigations/sites-aoi/kent-county/rockford-tannery,-85.560182,43.122506,1,Site,Final,Rockford,No,,,,{CFC91795-3C71-4421-9DA1-CB87E0B6162D},,,,2
595995.9029,453496.2948,Camp Grayling - Lake Margrethe,Crawford County ,Camp Grayling - Lake Margrethe Area,Grayling,49738,Military,Yes,Lisa Kruse,KruseL@Michigan.gov,989-370-1424,https://www.michigan.gov/pfasresponse/investigations/sites-aoi/crawford-county/camp-grayling-lake-margrethe,-84.78779,44.626681,1,Site,Final,Grayling,Yes,,,,{680012E1-B56F-4FAF-B1F4-EB2BA7A87C96},,,,3
393098.3985,645118.6682,K.I. Sawyer AFB,Marquette County,225 Airport Ave,Gwinn,49841,Military,Yes,Kenneth Heitkamp,HeitkampK@Michigan.gov,517-930-5218,https://www.michigan.gov/pfasresponse/investigations/sites-aoi/marquette-county/ki-sawyer-air-force-base,-87.3873,46.3496,2,Site,Final,Gwinn,Yes,,,2017/10/31 16:00:00+00,{BDB2EA44-8C27-432B-8281-B8F9ADEEE00A},,,,4
710363.1497,437621.2386,Wurtsmith AFB,Iosco County ,No Address - former Air Force Base,Oscoda,48750,Military,Yes,Amy Handley,HandleyA@Michigan.gov,517-898-3356,https://www.michigan.gov/pfasresponse/investigations/sites-aoi/iosco-county/wurtsmith,-83.353421,44.459534,1,Site,Final,Oscoda,Yes,,,2019/05/01 16:00:00+00,{725C2D9F-0EC2-4CAE-85AA-9A2E312A37CB},,,,5
718905.9787,280000.1981,Lapeer Plating & Plastics,Lapeer County,395 Demille Road,"Lapeer
",48446,Plating,No,Brian Zuber,ZuberB@Michigan.gov,517-388-0267,https://www.michigan.gov/pfasresponse/investigations/sites-aoi/lapeer-county/lapeer-plating-plastics,-83.310559,43.03889,2,Site,Final,Lapeer,No,,,2017/11/01 00:00:00+00,{611EF353-C1CB-4456-BA9D-76EDF25C732A},,,,6
615458.07,244190.0087,Adams Plating,Ingham County,521 N. Rosemary,Lansing,48917,Plating,No,Mark Reimann,ReimannM@Michigan.gov ,517-290-9379,https://www.michigan.gov/pfasresponse/investigations/sites-aoi/ingham-county/adams-plating,-84.587871,42.73954,3,Site,Final,Lansing,No,,,,{6ECE3D2F-6A49-4E72-8A34-3D38D7F85DB8},,,,7
701671.2614,505546.3113,Alpena Hide and Leather Co.,Alpena County,817 and 819 W. Miller Street,Alpena,21154,Tannery,No,Janice Adams,AdamsJ1@Michigan.gov ,989-619-4211,https://www.michigan.gov/pfasresponse/investigations/sites-aoi/alpena-county/alpena-hide-and-leather,-83.435792,45.07299,2,Site,Final,Alpena,No,,,2018/01/09 17:00:00+00,{00327F3D-6378-42A1-80BA-0FB5FD52CF24},,,,8
710782.8454,435500.5865,Whispering Pines MHC,Iosco County,4263 Bissonette,Oscoda,48750,Military,Yes,Beth Place,PlaceB1@Michigan.gov,517-899-7524,https://www.michigan.gov/pfasresponse/investigations/sites-aoi/iosco-county/oscoda-area,-83.349011,44.440336,1,Site,Final,Oscoda,Yes,,,,{4B85FC24-303F-4E2F-8BD9-3024D95C6EFB},,,,9
688323.7499,285649.8772,Coldwater Road Landfill & Peregrine,Genesee County ,1245 Coldwater Road,Flint,48458,Landfill,Yes,Nicole Sanabria,SanabriaN@Michigan.gov,517-281-7726,https://www.michigan.gov/pfasresponse/investigations/sites-aoi/genesee-county/coldwater-road-landfill,-83.683883,43.098026,1,Site,Final,Flint,No,,,,{3B21DB23-AB12-4006-977A-A461947670AC},,,,10
598157.763,340891.3083,Roosevelt Refinery,Isabella County,600 W Pickard Street,Mount Pleasant,48858,Refinery,No,Larry Engelhart,EngelhartL@Michigan.gov ,989-891-6946,https://www.michigan.gov/pfasresponse/investigations/sites-aoi/isabella-county/roosevelt-refinery,-84.781676,43.612701,2,Site,Final,Mt. Pleasant,No,,,,{8F95949E-CBAD-4914-B89E-439DBE8079FF},,,,11
691444.5039,504681.3669,Alpena Combat Readiness Center,Alpena County,5884 A St.,Alpena,49707,Military,Yes,Christiaan Bon,BonC@Michigan.gov,989-370-9624,https://www.michigan.gov/pfasresponse/investigations/sites-aoi/alpena-county/alpena-crtc,-83.56593683,45.06803886,1,Site,Final,Alpena,Yes,,,,{690ADDAF-2FF4-4E37-8655-592F9360D72E},,,,13
417358.5952,582748.0982,Escanaba Defense Fuel Supply Point,Delta County,6734 P Road,Escanaba,49829,Military,Yes,Kenneth Heitkamp,HeitkampK@Michigan.gov,517-930-5218,https://www.michigan.gov/pfasresponse/investigations/sites-aoi/delta-county/escanaba-dfsp,-87.06124303,45.79168882,3,Site,Final,Escanaba,Yes,,,2017/10/31 16:00:00+00,{18E80B4E-15AD-4A81-919F-E33869580BB7},,,,14
709335.2679,439220.4378,Van Etten Lake,Iosco County,No address - Lake,Oscoda,48750,Military,Yes,Beth Place,PlaceB1@Michigan.gov,517-899-7524,https://www.michigan.gov/pfasresponse/investigations/sites-aoi/iosco-county/oscoda-area,-83.36568555,44.47421724,1,Site,Final,Oscoda,Yes,,,2017/11/03 00:00:00+00,{1E98D017-DD85-4903-8604-13AD01241B93},,,,15
709672.1178,439856.7098,Loud Drive,Iosco County,No Address - large area of homes - E. side of Van Etten Lake,Oscoda,48750,MIlitary,Yes,Megan Berry,BerryM5@Michigan.gov,989-295-3877,https://www.michigan.gov/pfasresponse/investigations/sites-aoi/iosco-county/oscoda-area,-83.36119628,44.47984324,1,Site,Final,Oscoda,No,,,2017/11/03 00:00:00+00,{BB2AE1F0-2DF0-486F-AC3A-B5FACF92DF39},,,,16
707445.2706,440348.8373,Colbath Road,Iosco County,No Address - large area of homes,Oscoda,48750,Fire Related,Yes,Megan Berry,BerryM5@Michigan.gov,989-295-3877,https://www.michigan.gov/pfasresponse/investigations/sites-aoi/iosco-county/oscoda-area,-83.38897836,44.48491182,1,Site,Final,Oscoda,No,,,2017/11/03 00:00:00+00,{724729D3-7AEB-4999-9255-68CE6151342E},,,,17
708883.9411,433508.8476,Oscoda Area Schools,Iosco County,3550 River Road,Oscoda,48750,Unknown,Yes,Megan Berry,BerryM5Michigan.gov,989-295-3877,https://www.michigan.gov/pfasresponse/investigations/sites-aoi/iosco-county/oscoda-area,-83.37365458,44.42296907,1,Site,Final,Oscoda,No,,,2017/11/03 00:00:00+00,{E84884E7-B99D-4F7E-A142-52085FE81076},,,,18
704785.1072,442843.9799,McDonald Store Fire (aka F-41),Iosco County,No address-business burned-corner of F-41 and King's Corner Road,Oscoda,48750,Fire Related,Yes,Megan Berry,BerryM5@Michigan.gov,989-295-3877,https://www.michigan.gov/pfasresponse/investigations/sites-aoi/iosco-county/oscoda-area,-83.42141847,44.50811494,1,Site,Final,Oscoda,No,,,2017/11/03 00:00:00+00,{4E7BB15B-E167-48EA-9E02-73C790020B77},,,,19
533486.2113,275938.2853,State Disposal Superfund,Kent County,3954 East Beltline Rd,Grand Rapids,49525,Landfill,Yes,Erik Martinson,MartinsonE@michigan.gov,517-285-3978,https://www.michigan.gov/pfasresponse/investigations/sites-aoi/kent-county/state-disposal-superfund-site,-85.58728976,43.03369008,2,Site,Final,Plainfield Township,No,,,2017/11/03 00:00:00+00,{EB4397C6-B864-4F59-95B3-61BF6E14A104},,,,20
615735.7148,243972.2833,"RACER Lansing Plants 2,3,6",Ingham County,2800 West Saginaw Street; 2801 West Saginaw Street; Corner of W. MI Ave and N. Verlinden,Lansing,48917,Industrial,No,Christine Matlock,MatlockC2@Michigan.gov,517-290-4612,https://www.michigan.gov/pfasresponse/investigations/sites-aoi/ingham-county/racer-plants-2-3-6,-84.58452515,42.73753664,2,Site,Final,Lansing,No,,,2017/11/03 00:00:00+00,{FFCBBBCA-98AA-4C81-95A9-B031B1885593},,,,21
486801.1186,143348.4257,M-60 Tanker Spill,Cass County,2900 Pine Lake Street,Niles,49120,Fire Related,Yes,"Donovan Thomas
","ThomasD38@Michigan.gov 
","269-615-4451

",https://www.michigan.gov/pfasresponse/investigations/sites-aoi/cass-county/m-60-tanker-spill,-86.158,41.84061,2,Site,Final,Howard Township,No,,,2018/03/12 00:00:00+00,{66E16BB2-3DD8-4F27-A452-41348D169405},,,,22
539599.228,308922.0671,Central Sanitary Landfill,Montcalm County,21545 W Cannonsville Road,Pierson,49339,Landfill,Yes,Kent Walters,WaltersK7@Michigan.gov ,616-278-4350,https://www.michigan.gov/pfasresponse/investigations/sites-aoi/montcalm-county/central-sanitary-landfill,-85.50977398,43.33037523,2,Site,Final,Pierson,No,,,2018/05/02 00:00:00+00,{C1B911CF-03ED-4BC7-AA1B-2F9B8877B4F3},,,,23
546097.8349,203091.2638,North 34th Street,Kalamazoo County,9899 East D Ave,Richland,49083,Industrial,Yes,Rachel Golota,GolotaR@Michigan.gov,269-370-2404,https://www.michigan.gov/pfasresponse/investigations/sites-aoi/kalamazoo-county/north-34th-street,-85.43879246,42.37701665,2,Site,Final,Richland,No,,,2018/06/27 00:00:00+00,{85C1D8BC-B3E6-4B99-B987-B9483B67D796},,,,24
525221.8536,456818.6423,Carl's Retreading,Grand Traverse County,5175 Sawyer Woods Drive,Traverse City,49685,Fire Related,Yes,David Maynard,MaynardD@Michigan.gov,231-429-1656,https://www.michigan.gov/pfasresponse/investigations/sites-aoi/grand-traverse-county/carls-retreading,-85.67982625,44.66259046,3,Site,Final,Grawn,No,,,2018/07/23 00:00:00+00,{8C3B4F18-A2F4-4E58-B022-716D940B2575},,,,25
534981.3824,199295.6737,Crown Vantage Property,Kalamazoo County,100 Island Avenue (multiple addresses),Parchment,49004,Landfill,Yes,Rachel Golota,GolotaR@Michigan.gov,269-370-2404,https://www.michigan.gov/pfasresponse/investigations/sites-aoi/kalamazoo-county/crown-vantage-property,-85.57406045,42.34346935,2,Site,Final,Parchment,No,,,2018/09/04 00:00:00+00,{45B0CF22-1C3E-4614-BE4A-5DBD146D2676},,,,26
703948.3017,290108.0951,Richfield Landfill,Genesee County,11145 East Mt Morris Rd,Davison,48423,Landfill,Yes,Evin Maguire,MaguireE@Michigan.gov ,517-388-3525,https://www.michigan.gov/pfasresponse/investigations/sites-aoi/genesee-county/richfield-landfill,-83.49033534,43.13406472,2,Site,Final,Davison,No,,,2017/11/03 00:00:00+00,{9CDCF9DC-779E-489E-A3AE-A03854A60CA1},,,,27
688431.1479,279380.6047,RACER Buick City,Genesee County ,902 East Leith St,Flint,48505,Industrial,No,Nicole Sanabria,SanabriaN@Michigan.gov,517-281-7726,https://www.michigan.gov/pfasresponse/investigations/sites-aoi/genesee-county/racer-buick-city,-83.68471157,43.04157036,1,Site,Final,Flint,No,,,2018/09/17 00:00:00+00,{459A0D49-C229-4585-8EB7-2D123BCAFDDE},,,,28
511660.3858,366876.7245,Wash King Laundry,Lake County,9247 South M-37,Baldwin,49304,Laundromat/Dry Cleaner,Yes,Mark Riemann,ReimannM@michigan.gov,517-290-9379,https://www.michigan.gov/pfasresponse/investigations/sites-aoi/lake-county/wash-king-laundry,-85.85299967,43.85319927,2,Site,Final,Baldwin,No,,,2018/10/17 00:00:00+00,{F6226EFB-480D-4058-A396-7DB9B6F8FE50},,,,29
537729.8807,264970.8537,Lacks Industries - Cascade,Kent County,1601 Galbraith Ave SE,Grand Rapids,49546,Plating,Yes,Nicole Sanabria,SanabriaN@Michigan.gov,517-281-7726,https://www.michigan.gov/pfasresponse/investigations/sites-aoi/kent-county/lacks-industries-cascade,-85.53598708,42.934722,2,Site,Final,Grand Rapids,No,,,2018/10/17 00:00:00+00,{3A93F834-CFC2-43C4-9B4B-B301FA354ACC},,,,30
473683.5055,410842.5019,Manistee Plating,Manistee County,259 Sixth Ave,Manistee,49660,Plating,No,Brandi Wheeler,WheelerB5@Michigan.gov,231-878-8066,https://www.michigan.gov/pfasresponse/investigations/sites-aoi/manistee-county/manistee-plating,-86.32762564,44.24867952,3,Site,Final,Manistee,No,,,2018/10/17 00:00:00+00,{7706CBF4-AF62-4C1F-878E-CC381FFE8860},,,,31
759444.3509,233440.8945,Selfridge ANGB,Macomb County,"No address - ANG base
",Harrison Charter Township,48045,Military,Yes,Christine Matlock,MatlockC2@Michigan.gov,517-290-4612,https://www.michigan.gov/pfasresponse/investigations/sites-aoi/macomb-county/selfridge-air-national-guard-base-angb,-82.83496906,42.60713708,1,Site,Final,Harrison Township,Yes,,,2018/10/29 00:00:00+00,{4762E904-9DDA-449C-BB60-2E32AC20434E},,,,32
608960.0729,305400.806,Ithaca Sanitary Landfill,Gratiot County,West Washington Road,Ithaca,48847,Landfill,Yes,Jessica Tashman,TashmanJ@Michigan.gov,517-245-3931,https://www.michigan.gov/pfasresponse/investigations/sites-aoi/gratiot-county/ithaca-sanitary-landfill,-84.65502208,43.29165207,3,Site,Final,Ithaca,No,,,2018/10/29 00:00:00+00,{9DB5C63B-753F-4B21-A743-9F8F77D5344D},,,,33
631341.2892,190481.7919,Michner Plating - Mechanic Street,Jackson County,506 North Mechanic Street,Jackson,48912,Plating,No,Shelby Bahaw,BahawS@Michigan.gov,517-388-4899,https://www.michigan.gov/pfasresponse/investigations/sites-aoi/jackson-county/michner-plating,-84.406515,42.253322,2,Site,Final,Jackson,No,,,2018/12/12 00:00:00+00,{8995B3B4-1DDE-4E3E-B937-4437176CA660},,,,34
711829.3931,206222.0815,RACER Eckles Road,Wayne County,"12950 Eckles Road
",Livonia,48150,Industrial,No,Sam Cairns,CairnsS2@Michigan.gov,517-898-4058,https://www.michigan.gov/pfasresponse/investigations/sites-aoi/wayne-county/racer-12950-eckles-rd,-83.42534,42.37688,2,Site,Final,Livonia,No,,,2018/12/12 00:00:00+00,{65F61527-29FE-4BD6-B7D5-29365C2D017A},,,,35
682296.2197,271337.7748,Flint Bishop International Airport Landfill,Genesee County,G-3425 West Bristol Road,Flint,48507,Landfill,Yes,Brian Kuberski,KuberskiB@Michigan.gov,517-243-7574,https://www.michigan.gov/pfasresponse/investigations/sites-aoi/genesee-county/city-of-flint-landfill-at-bishop-international-airport,-83.76265803,42.97068965,3,Site,Final,Flint,No,,,2019/01/17 00:00:00+00,{61BB8D5F-27E2-4F29-847F-062A87F6867F},,,,36
538688.3946,259585.7363,Gerald R. Ford International Airport,Kent County,"5500 44th Street SW
",Grand Rapids,49512,Airport,Yes,Brent Ritchie,Ritchieb1@michigan.gov,616-581-1782,https://www.michigan.gov/pfasresponse/investigations/sites-aoi/kent-county/gerald-r-ford-international-airport,-85.524636,42.88618,1,Site,Final,Grand Rapids,No,,,2019/01/17 00:00:00+00,{290AB870-A6DE-46EF-9D78-00EE8FDB9BCB},,,,37
565820.1931,264777.1596,Lacks Industries - Saranac,Ionia County,6138 Riverside Drive,Saranac,48881,Plating,Yes,Nicole Sanabria,SanabriaN@Michigan.gov,517-281-7726,https://www.michigan.gov/pfasresponse/investigations/sites-aoi/ionia-county/lacks-industries-saranac,-85.191771,42.9309781,2,Site,Final,Saranac,No,,,2019/01/17 00:00:00+00,{531E01B2-6B84-4C6A-83BA-5D205CB50C6A},,,,38
669415.8345,230139.4225,Diamond Chrome Plating,Livingston County,604 S. Michigan Avenue,Howell,48843,Plating,Yes,Emily Peabody,PeabodyE@Michigan.gov,517-388-5719,https://www.michigan.gov/pfasresponse/investigations/sites-aoi/livingston-county/diamond-chrome-plating-dcp,-83.933129,42.602822,1,Site,Final,Howell,No,,,2019/01/17 00:00:00+00,{FE7C53E7-04C3-47FC-9E3A-F6CCBAC6AB60},,,,39
610391.1091,315101.6633,MRP (former Total Petroleum Refinery),Gratiot County,1610 East Superior Street,Alma,48801,Refinery,Yes,Marc Messina,MessinaM@Michigan.gov,517-219-2394,https://www.michigan.gov/pfasresponse/investigations/sites-aoi/gratiot-county/mrp-properties,-84.6354,43.37878,2,Site,Final,Alma,No,,,2019/02/15 00:00:00+00,{0B2A154F-E4E2-4BDE-B8C8-4D6200AA82B9},,,,40
557004.9354,233367.3499,Viking Corporation,Barry County,210 North Industrial Park Drive,Hastings,49058,Fire Related,No,Lynn Gosson,gossonl@michigan.gov,989-225-0161,https://www.michigan.gov/pfasresponse/investigations/sites-aoi/barry-county/viking-corporation,-85.303125,42.648879,2,Site,Final,Hastings,No,,,2019/02/15 00:00:00+00,{1847FB7C-493B-40AF-BD26-17CD37541B40},,,,41
682964.2397,181328.5501,Washtenaw Industrial Facility LLC (former Universal Die Cast),Washtenaw County,232 and 290 Monroe Street,Saline,48176,Plating,Yes,Sam Cairns,cairnss2@michigan.gov,517-898-4058,https://www.michigan.gov/pfasresponse/investigations/sites-aoi/washtenaw-county/washtenaw-industrial-facility,-83.78386,42.16024,2,Site,Final,Saline,No,,,2019/02/15 00:00:00+00,{ED2AB400-970C-4B63-94F4-B371A3C02FB4},,,,42
787387.7148,282941.6559,Fort Gratiot Landfill,St. Clair County,3290 Keewahdin Road,Fort Gratiot Township,48059,Landfill,Yes,Emily Ebaugh,EbaughE@Michigan.gov,586-255-2935,https://www.michigan.gov/pfasresponse/investigations/sites-aoi/st-clair-county/fort-gratiot-landfill,-82.469256,43.042372,1,Site,Final,Fort Gratiot Township,No,,,2019/02/28 00:00:00+00,{9C4EDAFA-7B82-44BD-80BA-BDD277FEF1B0},,,,43
736786.7156,215925.8791,MacDermind Inc.,Oakland County,1221 Farrow Street,Ferndale,48220,Industrial,No,Tianna Kilgore,KilgoreT@Michigan.gov,517-230-4395,https://www.michigan.gov/pfasresponse/investigations/sites-aoi/oakland-county/macdermid-inc,-83.11834,42.45689,4,Site,Final,Ferndale,No,,,2019/02/28 00:00:00+00,{89C79D76-6385-4878-938C-AF776C1009A3},,,,44
482934.455,296052.939,"MAHLE Engine Components, USA, Inc. - Former Harvey Street Muskegon Plant",Muskegon County,2051 South Harvey Street,Muskegon,49444,Industrial,N/A,Peter Van Heest,VanHeestP@Michigan.gov ,616-439-8019,https://www.michigan.gov/pfasresponse/investigations/sites-aoi/muskegon-county/mahle-engine-components,-86.20833,43.21548,2,Site,Final,Muskegon,No,,,2019/02/28 00:00:00+00,{547776CF-528D-433D-BB65-C1F48B64E819},,,,45
738655.3966,198858.4362,Gordie Howe International Bridge,Wayne County,Livernois Ave and W. Jefferson Ave,Detroit,48209,Industrial,No,Erik Gurshaw,GurshawE@Michigan.gov,586-291-3418,https://www.michigan.gov/pfasresponse/investigations/sites-aoi/wayne-county/gordie-howe-international-bridge,-83.102806,42.302707,4,Site,Final,Detroit,No,,,2019/04/04 00:00:00+00,{43648D48-8CE5-4031-817A-3521A88C8AB6},,,,46
605807.734,460203.1451,Camp Grayling – MATES at Range 30,Crawford County,2450 W. North Down River Rd,Grayling,49738,Military,Yes,Lisa Kruse,KruseL@Michigan.gov,989-370-1424,https://www.michigan.gov/pfasresponse/investigations/sites-aoi/crawford-county/camp-grayling-mates,-84.66273437,44.6856673,1,Site,Final,Grayling,Yes,,,2019/04/04 00:00:00+00,{A7D063FA-6247-484B-AD75-AA4B0ADB295B},,,,47
493324.8675,245600.9255,636 40th Street East ,Allegan County,636 East 40th Street,Holland,49423,Industrial,Yes,Ray Spaulding,SpauldingR1@Michigan.gov,517-290-2401,https://www.michigan.gov/pfasresponse/investigations/sites-aoi/allegan-county/636-40th-street-east,-86.080007,42.761355,2,Site,Final,Holland,No,,,2019/04/04 00:00:00+00,{2235AC38-BC98-42B0-9C29-6A2D50714F5B},,,,48
684525.3367,183060.6719,Ford Motor Company – Saline Plant,Washtenaw County,7700 Michigan Avenue,Saline,48176,Industrial,No,Nicole Sanabria,SanabriaN@Michigan.gov,517-281-7726,https://www.michigan.gov/pfasresponse/investigations/sites-aoi/washtenaw-county/ford-saline-plant,-83.76441,42.17546,2,Site,Final,Saline,No,,,2019/05/16 00:00:00+00,{93A20641-1FFB-43BF-9642-FFF9A817A65B},,,,49
521984.574,262062.0224,Electro Chemical Finishing - Remico,Kent County,2610 Remico Street SW,Wyoming,49519,Plating,N/A,Brent Ritchie,ritchieb1@michigan.gov,616-581-1782,https://www.michigan.gov/pfasresponse/investigations/sites-aoi/kent-county/electro-chemical-finishing-remico,-85.72907,42.909196,2,Site,Final,Wyoming,No,,,2019/05/16 00:00:00+00,{75450026-9542-4715-AD46-1F627C27BBDD},,,,50
481739.9147,294891.7628,Peerless Plating,Muskegon County,2554 Getty Avenue,Muskegon,49444,Plating,No,Nicolas Dawson,DawsonN1@Michigan.gov ,517-897-0912,https://www.michigan.gov/pfasresponse/investigations/sites-aoi/muskegon-county/peerless-plating,-86.223,43.205,2,Site,Final,Muskegon Charter Township,No,,,2019/05/17 00:00:00+00,{3C480C77-DDEC-4400-B7FA-5FFCD43CF392},,,,51
708063.6713,442649.7253,Oscoda Township Dump,Iosco County,Kings Corner Road,Oscoda ,48750,Landfill,Yes,Megan Berry,BerryM5@Michigan.gov,989-295-3877,https://www.michigan.gov/pfasresponse/investigations/sites-aoi/iosco-county/oscoda-area,-83.38028336,44.50543233,1,Site,Final,Oscoda Township,No,,,2019/05/30 00:00:00+00,{47B093CC-C341-44AA-9913-B38E924DEE3D},,,,52
554650.317,279521.147,Ashley Avenue Disposal Area,Kent County,Corner of Ashley Ave and 6 Mile Rd,Grattan,48809,Landfill,Yes,Leah Gies,GiesL1@Michigan.gov,616-215-4781,https://www.michigan.gov/pfasresponse/investigations/sites-aoi/kent-county/ashley-avenue-disposal-area,-85.32714363,43.06466081,3,Site,Final,Belding,No,,,2019/06/13 00:00:00+00,{6736FCF6-3E2C-4BC6-A831-1B3B370B81AA},,,,53
545228.3187,162623.4139,Lear Siegler Inc.,St. Joseph County,236 West Clark Street,Mendon,49072,Industrial,Yes,Pablo Mora,MoraP@Michigan.gov,269-910-0136,https://www.michigan.gov/pfasresponse/investigations/sites-aoi/st-joseph-county/lear-siegler-inc,-85.452788,42.012649,2,Site,Final,Mendon,No,,,2019/06/13 00:00:00+00,{56878B82-2E8E-4607-8A09-A6FB64EF9DA6},,,,54
700149.144,190299.1529,RACER Willow Run,Washtenaw County,2930 Ecorse Rd,Ypsilanti,48198,Industrial,No,Ashley Lesser,LesserA@Michigan.gov,517-285-6324,https://www.michigan.gov/pfasresponse/investigations/sites-aoi/washtenaw-county/racer-willow-run,-83.572771,42.236694,2,Site,Final,Ypsilanti,No,,,2019/06/13 00:00:00+00,{10AC55F1-8F0F-4688-A583-552F55C365D6},,,,55
493160.3546,270651.0922,120th Avenue Area,Ottawa County,Area around Robinson Elementary School,Grand Haven,49417,Fire Related,Yes,Kelly Moss,MossK@michigan.gov,616-215-4588,https://www.michigan.gov/pfasresponse/investigations/sites-aoi/ottawa-county/120th-avenue-area,-86.08222,42.986905,2,Site,Final,Grand Haven,No,,,2019/06/13 00:00:00+00,{96263C54-C829-4EB4-90D1-F2E22030A3F0},,,,56
683851.3975,220609.8211,Thermofil,Livingston County,6150 Whitmore Lake Road,Brighton,48116,Industrial,Yes,Emily Peabody,PeabodyE@Michigan.gov,517-388-5719,https://www.michigan.gov/pfasresponse/investigations/sites-aoi/livingston-county/thermofil,-83.760346,42.513666,1,Site,Final,Green Oaks Township,No,,,2019/07/01 00:00:00+00,{D93FD7F6-2019-4DE2-8371-0FB4D95F7138},,,,57
535895.0683,279181.6534,Northeast Gravel,Kent County,3769 Cannonsburg Road NE,Belmont,49306,Landfill,Yes,Karen Vorce,VorceK@Michigan.gov,616-439-8008,https://www.michigan.gov/pfasresponse/investigations/sites-aoi/kent-county/northeast-gravel,-85.5575,43.06277778,1,Site,Final,Belmont,No,,,2019/07/01 00:00:00+00,{79AF20C2-FE4B-4238-BD3A-A034045C5CF1},,,,58
525292.5555,264908.9868,BASF Corporation – Inmont Division,Kent County,836 Chicago Drive SW,Wyoming,49519,Industrial,No,Brent Ritchie,ritchieb1@michigan.gov,616-581-1782,https://www.michigan.gov/pfasresponse/investigations/sites-aoi/kent-county/basf-corporation-inmont-division,-85.688408,42.934718,2,Site,Final,Wyoming,No,,,2019/07/01 00:00:00+00,{C6CADE28-8841-4C8D-9D37-C030B24588B9},,,,59
485668.8126,183375.562,Du-Wel Metals,Van Buren County,520 Heywood Street,Hartford,49057,Plating,Yes,Ray Spaulding,SpauldingR1@Michigan.gov ,517-290-2401,https://www.michigan.gov/pfasresponse/investigations/sites-aoi/van-buren-county/du-wel-metals,-86.172332,42.201002,2,Site,Final,Hartford,"No
",,,2019/07/02 00:00:00+00,{A33907F8-17AB-4036-972B-E800B36AF961},,,,60
482469.3574,295415.3538,Former ESCO,Muskegon County,1221 E. Barney,Muskegon,49444,Industrial ,No,Peter Van Heest,VanHeestP@Michigan.gov,616-439-8019,https://www.michigan.gov/pfasresponse/investigations/sites-aoi/muskegon-county/former-esco,-86.21404,43.20973,3,Site,Final,Muskegon,No,,,2019/08/01 00:00:00+00,{DE4B138E-638A-4193-BF7E-786D2E29A19C},,,,61
583447.3526,337843.4226,Isabella County Landfill,Isabella County,West Tomah Road,Mount Pleasant,48858,Landfill,No,Lori Babcock,BabcockL4@Michigan.gov,989-460-7352 ,https://www.michigan.gov/pfasresponse/investigations/sites-aoi/isabella-county/isabella-county-landfill,-84.964439,43.587081,2,Site,Final,Deerfield Township,No,,,2019/08/15 00:00:00+00,{89D07096-05FC-47CB-819F-304F38752B58},,,,62
603645.6999,247644.1157,"Grand Ledge Army Aviation Support
Facility and Armory Site",Clinton County,10600 W. Eaton Highway,Grand Ledge,48837,Military,Yes,Kim Sakowski,SakowskiK@Michigan.gov,517-582-2219,https://www.michigan.gov/pfasresponse/investigations/sites-aoi/clinton-county/grand-ledge-armory,-84.73151667,42.772375,2,Site,Final,Grand Ledge,Yes,,,2019/09/06 00:00:00+00,{FFBDD26B-82D1-4531-A36B-9331E7BC7BFF},,,,63
498505.778,298440.6808,Muskegon County Landfill Type II,Muskegon County,9366 Apple Ave,Ravenna,49451,Landfill,No,Kent Walters,WaltersK7@Michigan.gov ,616-278-4350,https://www.michigan.gov/pfasresponse/investigations/sites-aoi/muskegon-county/muskegon-county-landfill-type-ii,-86.01664,43.237135,2,Site,Final,Ravenna,No,,,2019/09/24 00:00:00+00,{B90024FD-8586-4A3D-BEE4-2D9CFC7232C7},,,,64
566435.0361,283881.9232,Pitsch Sanitary Landfill,Ionia County,7905 Johnson Road,Belding,48809,Landfill,No,Kent Walters,WaltersK7@Michigan.gov ,616-278-4350,https://www.michigan.gov/pfasresponse/investigations/sites-aoi/ionia-county/pitsch-sanitary-landfill,-85.18187,43.102954,2,Site,Final,Belding,No,,,2019/10/10 00:00:00+00,{289CBC41-F61E-454F-953B-4E27F0E42CE1},,,,65
719509.3667,153845.7928,Ford River Raisin Warehouse,Monroe County,3200 East Elm Avenue,Monroe,48162,Industrial,No,Christine Matlock,MatlockC2@Michigan.gov,517-290-4612,https://www.michigan.gov/pfasresponse/investigations/sites-aoi/monroe-county/ford-river-raisin-warehouse,-83.35222,41.90325,2,Site,Final,Monroe,No,,,2019/10/10 00:00:00+00,{D09C14D8-A408-4763-8253-75960C4C12AA},,,,66
528622.9629,264920.3949,Cottage Grove and Marshall Area,Kent County,"800 Block of Cottage Grove Street, SE and 1500 Block of Marshall Avenue, SE",Grand Rapids,49507,Plating,N/A,Brent Ritchie,ritchieb1@michigan.gov,616-581-1782,https://www.michigan.gov/pfasresponse/investigations/sites-aoi/kent-county/cottage-grove-and-marshall-area,-85.647594,42.934692,2,Site,Final,Grand Rapids,No,,,2019/10/25 00:00:00+00,{E0F75DC5-2EAE-4C17-82E7-148A59F3AFB2},,,,67
532444.7423,261883.2949,Former Keeler Brass – 32nd Street,Kent County,"2929 32nd Street, SE",Kentwood,20020,Plating,N/A,Jason Poll,PollJ@Michigan.gov,616-446-1263,https://www.michigan.gov/pfasresponse/investigations/sites-aoi/kent-county/former-keeler-brass-32nd-street,-85.600948,42.90717998,2,Site,Final,Kentwood,No,,,2019/10/25 00:00:00+00,{014043EE-E3FF-4F65-8DAA-DBC12E7BCDB8},,,,68
647547.4753,273510.5229,Partz Corporation,Shiawassee County,1232 W. Main Street,Owosso,48867,Plating,N/A,Jessica Tashman,TashmanJ@Michigan.gov,517-245-3931,https://www.michigan.gov/pfasresponse/investigations/sites-aoi/shiawassee-county/partz-corporation,-84.18808,42.99789,4,Site,Final,Owosso,No,,,2019/10/25 00:00:00+00,{739AEDB5-C2E9-4974-AF4C-8793956F119E},,,,69
618022.8476,636111.7742,Former Kincheloe Air Force Base,Chippewa County,,,49788,Military,Yes,Ashley Miller/Bill Harmon,MillerA65@Michigan.gov,906-235-7435,https://www.michigan.gov/pfasresponse/investigations/sites-aoi/chippewa-county/kincheloe-air-force-base,-84.4664,46.2666,2,Site,Final,Kinross Township,Yes,,,2019/11/05 00:00:00+00,{4E25C844-A96E-4518-9371-7B6D936C16F3},,,,70
678616.4601,199547.528,Former Chrysler Scio Introl Division Site,Washtenaw County ,2880 Zeeb Road,Dexter,48130,Industrial,Yes,Joseph Rogers,RogersJ5@Michigan.gov,517-555-5312,https://www.michigan.gov/pfasresponse/investigations/sites-aoi/washtenaw-county/chrysler-scio-introl-division,-83.830729,42.325297,2,Site,Final,Dexter,No,,,2019/11/05 00:00:00+00,{1F21AAA0-27C7-4DCA-897E-A58F8F32EF86},,,,71
598232.3991,341048.7332,Mt. Pleasant City Landfill,Isabella County,1301 North Franklin Street,Mount Pleasant,48858,Landfill,No,Larry Engelhart,EngelhartL@Michigan.gov ,989-891-6946,https://www.michigan.gov/pfasresponse/investigations/sites-aoi/isabella-county/mt-pleasant-city-landfill,-84.7807222,43.6141083,2,Site,Final,Mount Pleasant,No,,,2019/11/13 00:00:00+00,{D63E6EEA-84AD-449A-A216-C085B8EFF2F9},,,,72
533360.6426,181589.9388,Portage Former Landfill and Firefighter Training Facility,Kalamazoo County,South Westnedge,Portage,49002,Fire Related,Yes,Megan Watikunas,WatikunasM@Michigan.gov,269-568-7733,https://www.michigan.gov/pfasresponse/investigations/sites-aoi/kalamazoo-county/portage-former-landfill-ftf,-85.59487196,42.18410701,2,Site,Final,Portage,No,,,2020/01/24 00:00:00+00,{AC7524FE-DE76-46DF-B449-C546F97FFDE3},,,,73
668764.7018,337450.0389,Middleground Landfill,Bay County,Middleground Island,Bay City,48706,Landfill,No,Loren Curtis,CurtisL@Michigan.gov ,989-274-0614,https://www.michigan.gov/pfasresponse/investigations/sites-aoi/bay-county/middleground-landfill,-83.90805,43.56895,1,Site,Final,Middleground Landfill,No,,,2020/01/21 00:00:00+00,{AEA6DBB5-452A-4B27-9CD4-DAC650D57E92},,,,74
536933.8275,193051.4315,Georgia Pacific Corporation,Kalamazoo County,2425 King Highway,Kalamazoo,49048,Paper Manufacturing,N/A,Megan Watikunas,WatikunasM@Michigan.gov,269-568-7733,https://www.michigan.gov/pfasresponse/investigations/sites-aoi/kalamazoo-county/georgia-pacific-corporation,-85.55079996,42.28713997,2,Site,Final,Kalamazoo,No,,,2020/02/07 00:00:00+00,{ED4707EF-EE1D-49F0-9C36-FED8241BBA3E},,,,75
480427.9733,290341.3005,Muskegon County Airport Area,Muskegon County,99 Sinclair Dr,Muskegon,49441,Airport,Yes,Peter Van Heest,VanHeestP@Michigan.gov ,616-439-8019,https://www.michigan.gov/pfasresponse/investigations/sites-aoi/muskegon-county/muskegon-county-airport-area,-86.239,43.164,1,Site,Final,Muskegon,No,,,2020/01/07 00:00:00+00,{237DF57E-8D3F-4242-9CC0-9E9260877A3C},,,,76
536908.8395,192937.3365,Nolichucky Industrial Corp.,Kalamazoo County,"2305 King Highway
",Kalamazoo,49048,Paper Manufacturing,N/A,Megan Watikunas,WatikunasM@Michigan.gov,269-568-7733,https://www.michigan.gov/pfasresponse/investigations/sites-aoi/kalamazoo-county/nolichucky-industrial-corp,-85.55111105,42.28611384,3,Site,Final,"Kalamazoo
",No,,,2019/05/30 00:00:00+00,{ED53F0F1-147C-4EB7-8F05-7DE898DC1ABF},,,,77
473867.1612,317970.7044,White Lake Landfill ,Muskegon  County,3278 Colby Road ,Whitehall,49461,Landfill,No,Kent Walters,WaltersK7@Michigan.gov ,616-278-4350,https://www.michigan.gov/pfasresponse/investigations/sites-aoi/muskegon-county/white-lake-landfill,-86.320933,43.412571,1,Site,Final,Whitehall,No,,,2020/02/24 00:00:00+00,{EC58EE8E-09FC-4B3E-8225-6D5B9E26012D},,,,78
527506.7518,269493.8423,Hoff Industries,Kent County,719 Prospect Ave. NE,Grand Rapids,49503,Plating,No,Jason Poll,PollJ@Michigan.gov,616-446-1263 ,https://www.michigan.gov/pfasresponse/investigations/sites-aoi/kent-county/hoff-industries,-85.661029,42.975919,4,Site,Final,"Grand Rapids
",No,,,2020/02/26 00:00:00+00,{FCE5B89B-6FF0-45A4-8EF1-7B690E12604E},,,,79
712334.969,431832.3477,AuSable Twp Smith Street Area,Iosco County,US-23 & Smith St. Vicinity,AuSable Township,48750,Unknown,Yes,Megan Berry,BerryM5@Michigan.gov,989-295-3877,https://www.michigan.gov/pfasresponse/investigations/sites-aoi/iosco-county/oscoda-area,-83.331022,44.406886,1,Site,Final,AuSable Township,No,,,2020/02/26 00:00:00+00,{0CFACD08-E46C-42AD-BF30-DEED34A03E1D},,,,80
527300.6974,219495.9783,Watson Township Dump,Allegan County,115th Avenue,Martin,49070,Landfill,Yes,Ray Spaulding,SpauldingR1@Michigan.gov ,517-290-2401,https://www.michigan.gov/pfasresponse/investigations/sites-aoi/allegan-county/watson-township-dump,-85.66621351,42.5257141,3,Site,Final,Watson Township,No,,,2020/02/24 00:00:00+00,{B57B10E9-6F8F-4DFF-8B32-DC503B9323AB},,,,81
598044.8785,363769.0217,Clare Water Supply Superfund Site,Clare County,Clare Industrial Park,Clare,48617,Plating,Yes,Beth Mead-O’Brien,OBriene1@Michigan.gov,517-242-7829,https://www.michigan.gov/pfasresponse/investigations/sites-aoi/clare-county/clare-water-supply-superfund-site,-84.778854,43.818683,2,Site,Final,Clare,No,,,2020/03/12 00:00:00+00,{A1BB798E-B566-45A2-9F61-C110DBA10EF1},,,,82
523401.6511,192580.9505,West KL Avenue Landfill,Kalamazoo County,8606 West KL Avenue,Kalamazoo,49009,Landfill,No,Wally Wagaw,WagawW@Michigan.gov ,517-648-1540,https://www.michigan.gov/pfasresponse/investigations/sites-aoi/kalamazoo-county/west-kl-avenue-landfill,-85.714938,42.283493,4,Site,Final,Oshtemo Township,No,,,2020/03/12 00:00:00+00,{CD545197-C5E1-493D-A776-152D91A22C41},,,,83
463716.7073,172648.44,Harbor Plating,Berrien County,724 South Fair Street,Benton Harbor,49022,Plating,No,"Pablo Mora
","MoraP@Michigan.gov
","269-910-0136
",https://www.michigan.gov/pfasresponse/investigations/sites-aoi/berrien-county/harbor-plating,-86.43755178,42.10381271,2,Site,Final,Benton Harbor,No,,,2020/03/12 00:00:00+00,{28625D4C-EB81-421D-80B9-021ED7FF0885},,,,84
739720.7515,252836.6678,Walker Landfill,Macomb County,5001 31 Mile Road,Washington,48095,Landfill,No,Cynthia Paslawski,PaslawskiC@Michigan.gov,586-668-6433,https://www.michigan.gov/pfasresponse/investigations/sites-aoi/macomb-county/walker-landfill,-83.06694444,42.78813333,4,Site,Final,Washington Twp,No,,,2020/03/12 00:00:00+00,{B942BF6D-C4FA-48E5-A3C8-3237C27BFEAA},,,,85
594911.6966,385316.3909,City of Harrison Landfill Area,Clare County,Foote Drive,Harrison,48625,Landfill,Yes,Lori Babcock,BabcockL4@Michigan.gov,989-460-7352 ,https://www.michigan.gov/pfasresponse/investigations/sites-aoi/clare-county/city-of-harrison-landfill-area,-84.813932,44.01308,2,Site,Final,Harrison,No,,,2020/03/16 00:00:00+00,{B61EDC9D-B0D1-40F0-931D-8A98C95B84DD},,,,86
700862.5674,208630.1768,"Advanced Disposal Services Arbor Hills Landfill, Inc.",Washtenaw County,Napier Road and Six Mile Road,Northville,48168,Landfill,Yes,Brett Coulter,CoulterB1@Michigan.gov,517-614-7714,https://www.michigan.gov/pfasresponse/investigations/sites-aoi/washtenaw-county/arbor-hills-landfill,-83.5576311,42.4015226,2,Site,Final,Salem Township,No,,,2020/03/31 00:00:00+00,{E1DE5A6D-32FD-409A-B36B-28A0F74381C0},,,,87
529222.3375,137737.8821,White Pigeon Paper Company,St. Joseph County,15781 River Street,White Pigeon,49099,Paper Manufacturing,Yes,Ray Spaulding,SpauldingR1@Michigan.gov ,517-290-2401,https://www.michigan.gov/pfasresponse/investigations/sites-aoi/st-joseph-county/white-pigeon-paper-company,-85.6475,41.7894,2,Site,Final,White Pigeon Township,No,,,2020/04/02 00:00:00+00,{25CBEF3B-6FD3-46ED-8830-DA4CCDBEBE7F},,,,88
523736.8906,266245.6286,"Grand Rapids Water Resource Recovery Facility, Former Incinerator Ash Lagoon",Kent County,1300 Market Avenue SW,Grand Rapids,49503,Landfill,No,Kevin Wojciechowski,WojciechowskiK@Michigan.gov,586-623-2948,https://www.michigan.gov/pfasresponse/investigations/sites-aoi/kent-county/grand-rapids-water-resource-recovery-facility,-85.70741,42.94680895,2,Site,Final,Grand Rapids,No,,,2020/05/18 00:00:00+00,{53C93F9B-B65A-42D5-911B-2C80B5450540},,,,89
663710.0142,318430.4542,Delphi Saginaw Division Plant 2 ,Saginaw County,1400 Holmes Street,Saginaw,48602,Industrial,No,Andrew Karg,KargA@Michigan.gov ,989-891-6948,https://www.michigan.gov/pfasresponse/investigations/sites-aoi/saginaw-county/delphi-saginaw-division-plant-2,-83.976389,43.398889,1,Site,Final,Saginaw,No,,,2020/05/18 00:00:00+00,{94047B81-94C3-470A-8098-A13F8A113A7E},,,,90
666443.2011,150712.8083,Adrian Landfill Incorporated,Lenawee County,1970 Ogden Highway,Adrian,49221,Landfill,No,Brett Coulter,CoulterB1@Michigan.gov,517-614-7714,https://www.michigan.gov/pfasresponse/investigations/sites-aoi/lenawee-county/adrian-landfill-incorporated,-83.992735,41.888357,2,Site,Final,Adrian,No,,,2020/05/26 00:00:00+00,{6262E947-2A88-4ECC-9E26-E2F83BCE641C},,,,91
714691.1962,193977.0258,US Ecology Romulus,Wayne County,36345 Van Born Road,Romulus,48174,Landfill,No,Nicole Sanabria,SanabriaN@Michigan.gov,517-281-7726,https://www.michigan.gov/pfasresponse/investigations/sites-aoi/wayne-county/us-ecology-romulus,-83.39523,42.26586,2,Site,Final,Romulus,No,,,2020/05/28 00:00:00+00,{E521C0FC-A451-45DA-96FB-72BDC971319C},,,,92
738517.7114,218168.1615,Electro-Plating Services,Oakland County,945 East Ten Mile Road,Madison Heights,48071,Plating,No,Joseph DeGrazia,DeGraziaJ@Michigan.gov ,586-291-0476,https://www.michigan.gov/pfasresponse/investigations/sites-aoi/oakland-county/electro-plating-services,-83.096357,42.476531,3,Site,Final,Madison Heights,No,,,2020/06/30 00:00:00+00,{AB97FF05-09F2-470C-9CEB-E79424E64812},,,,93
476420.7545,180213.8925,Orchard Hill Landfill ,Berrien County,3290 Hennesey Road,Watervliet,49098,Landfill,Yes,Nate Whitmyer,whitmyern@michigan.gov,"269-286-1451
",https://www.michigan.gov/pfasresponse/investigations/sites-aoi/berrien-county/orchard-hill-landfill,-86.284213,42.172354,2,Site,Final,Watervliet,No,,,2020/07/20 00:00:00+00,{27BAC25C-E223-45E8-87D3-5ED65E7FA8EE},,,,94
474849.5912,407403.6033,City of Manistee Former Landfill,Manistee County,Adamczak Rd,Manistee,49660,Landfill,Yes,Brandi Wheeler,WheelerB5@Michigan.gov,231-878-8066,https://www.michigan.gov/pfasresponse/investigations/sites-aoi/manistee-county/city-of-manistee-former-landfill,-86.312859,44.217761,1,Site,Final,Manistee,No,,,2020/07/09 00:00:00+00,{FA20089C-03F9-4B0F-A849-9F897269076E},,,,95
721137.8952,223311.2026,Franklin Village Area,Oakland County,Franklin Road between Evelyn Court and Vincennes Avenue/Ravine Dr,Franklin,48025,Unknown,Yes,Kimberly Ethridge,EthridgeK@Michigan.gov ,586-324-0183,https://www.michigan.gov/pfasresponse/investigations/sites-aoi/oakland-county/franklin-village-area,-83.30565106,42.52805421,1,Site,Final,Franklin,No,,,2020/07/16 00:00:00+00,{78AC107B-E53A-4292-9067-D4362EA3973E},,,,96
749790.8903,205943.3138,"Petro-Chem Processing Group of Nortru, LLC (Petro-Chem)",Wayne County,421 Lycaste Street,Detroit,48214,Industrial,No,Tianna Kilgore,KilgoreT@Michigan.gov,517-230-4395,https://www.michigan.gov/pfasresponse/investigations/sites-aoi/wayne-county/petro-chem,-82.9647,42.36292,3,Site,Final,Detroit,No,,,2020/07/28 00:00:00+00,{FC59AB73-AD40-486A-A729-9BD9C175C348},,,,97
467251.54,376842.0376,Ludington Wastewater Treatment Plant ,Mason County,5160 West Sixth Street,Ludington,49431,Wastewater,Yes,Kevin Wojciechowski,WojciechowskiK@Michigan.gov,586-623-2948,https://www.michigan.gov/pfasresponse/investigations/sites-aoi/mason-county/ludington-wastewater-treatment-plant,-86.406107,43.942332,3,Site,Final,Ludington,No,,,2020/07/29 00:00:00+00,{B10CDEE7-FB06-4855-B74F-E7D9EE4DA11B},,,,98
539443.4377,190487.2546,Aero-Motive Company,Kalamazoo County,5688 ML Avenue,Kalamazoo,49048,Industrial,Yes,Pablo Mora,MoraP@Michigan.gov,269-910-0136,https://www.michigan.gov/pfasresponse/investigations/sites-aoi/kalamazoo-county/aero-motive-company,-85.5205555,42.26391389,2,MCL,Final,Kalamazoo,No,,,2020/08/03 00:00:00+00,{488B3B10-4CB1-4870-B514-4DAE2C98DC92},,,,99
535257.8063,295609.2848,Cedar Springs Historic Wastewater Treatment Lagoons and Discharge Fields,Kent County,755 and 725 West Street,Cedar Springs,49319,Wastewater,Yes,Leah Gies,GiesL1@Michigan.gov ,616-215-4781,https://www.michigan.gov/pfasresponse/investigations/sites-aoi/kent-county/cedar-springs-historic-wwtl-df,-85.56422,43.21073,1,MCL,Final,Kent,No,,,2020/08/03 00:00:00+00,{48509E16-1C52-4064-8688-E192A6FD2FB0},,,,100
479329.6936,615396.7997,City of Manistique Landfill,Schoolcraft County,M-94,Manistique,49854,Landfill,No,Mary Ann St Antoine,StAntoineM@Michigan.gov ,989-370-8035,https://www.michigan.gov/pfasresponse/investigations/sites-aoi/schoolcraft-county/city-of-manistique-landfill,-86.265288,46.090159,3,MCL,Final,Manistique,No,,,2020/08/03 00:00:00+00,{6AF71B21-3867-41DF-BD7B-B8C92004F151},,,,101
707125.8108,177051.2965,City Sand & Landfill Inc,Wayne County,46805 Willow Road,Belleville,48111,Landfill,N/A,Aaron Darling,darlinga5@michigan.gov,586-942-1910,https://www.michigan.gov/pfasresponse/investigations/sites-aoi/wayne-county/city-sand-landfill-inc,-83.49307,42.11558,1,MCL,Final,Belleville,No,,,2020/08/03 00:00:00+00,{AD37B107-5452-4C49-8FD0-D3B7929542DA},,,,102
721879.6052,241274.464,Collier Road Landfill,Oakland County,575 Collier Road ,Pontiac,48340,Landfill,Yes,Aaron Darling,darlinga5@michigan.gov,586-942-1910,https://www.michigan.gov/pfasresponse/investigations/sites-aoi/oakland-county/collier-road-landfill,-83.28953,42.68951,1,MCL,Final,Pontiac,No,,,2020/08/03 00:00:00+00,{2AADE5E4-6A1E-401D-BCAD-8C2D2A242CF9},,,,103
737412.5987,356222.069,Cove Landfill and Huron Landfill Property,Huron County,4151 McMillan Rd,Bad Axe,48413,Landfill,Yes,Lori Babcock,BabcockL4@Michigan.gov,989-460-7352 ,https://www.michigan.gov/pfasresponse/investigations/sites-aoi/huron-county/cove-landfill-and-huron-landfill-property,-83.050332,43.719038,2,MCL,Final,Bad Axe,No,,,2020/08/03 00:00:00+00,{D340C743-9290-4049-AE4A-969DE4DEEE2F},,,,104
671745.1924,342640.1953,Dow Chemical ITI Facility,Bay County,"Martin Street, East of H. S. Truman Parkway",Bay City,48706,Industrial,No,Diana Klida,KlidaD@Michigan.gov,989-280-7687 ,https://www.michigan.gov/pfasresponse/investigations/sites-aoi/bay-county/dow-chemical-iti-facility,-83.869499,43.614978,1,MCL,Final,Bay City,No,,,2020/08/03 00:00:00+00,{C5162709-C285-47EA-8977-A1AE9662CF50},,,,105
602311.4271,233532.3599,Eaton County Landfill,Eaton County,East Gresham Highway ,Potterville,48876,Landfill,No,Evin Maguire,MaguireE@Michigan.gov ,517-388-3525,https://www.michigan.gov/pfasresponse/investigations/sites-aoi/eaton-county/eaton-county-landfill,-84.75045,42.64549,2,MCL,Final,Potterville,No,,,2020/08/03 00:00:00+00,{A16B8230-0F3A-42A3-B681-4CF0001E6DE0},,,,106
481697.0959,300281.9966,Former Teledyne Vehicle Systems (TDY),Muskegon County,76 Getty Street,Muskegon,49442,Industrial,No,Evin Maguire,MaguireE@Michigan.gov,517-388-3535,https://www.michigan.gov/pfasresponse/investigations/sites-aoi/muskegon-county/former-teledyne-vehicle-systems,-86.22369,43.25353,3,MCL,Final,Muskegon,No,,,2020/08/03 00:00:00+00,{D5A82E12-5EF7-4BF1-8074-C14ED9E7D357},,,,107
512309.2902,470578.4757,Glens Sanitary Landfill,Leelanau County,518 M-72 West,Maple City,49664,Landfill,No,James Staley,StaleyJ1@Michigan.gov,231-429-1945 ,https://www.michigan.gov/pfasresponse/investigations/sites-aoi/leelanau-county/glens-sanitary-landfill,-85.842367,44.786805,4,MCL,Final,Traverse City,No,,,2020/08/03 00:00:00+00,{8EA962C4-9BA2-4A74-8F9B-6F7C601A7FBA},,,,108
671066.6157,341669.7612,GM Powertrain Bay City,Bay County,100 Fitzgerald Street ,Bay City,48708,Industrial,No,Jeremy Peppin,pepinj2@michigan.gov,517-219-2288,https://www.michigan.gov/pfasresponse/investigations/sites-aoi/bay-county/gm-powertrain,-83.878214,43.606401,1,MCL,Final,Bay City,No,,,2020/08/03 00:00:00+00,{26D053A4-B59B-4A76-8CB2-33C6F5E79974},,,,109
604733.5242,454999.3549,Grayling Wastewater Treatment Facility Discharge Fields ,Crawford County,Fort Rd,Grayling,49738,Wastewater,TBD,Kevin Wojciechowski,WojciechowskiK@Michigan.gov,586-623-2948,https://www.michigan.gov/pfasresponse/investigations/sites-aoi/crawford-county/grayling-wastewater-treatment-facility-discharge-fields,-84.677353,44.638987,2,MCL,Final,Grayling,No,,,2020/08/03 00:00:00+00,{BA734A4B-E316-4EBB-B954-637852D65E5D},,,,110
557438.7447,236963.2754,CES Landfill of Hastings,Barry County,1899 North M-43 Highway,Hastings,49058,Landfill,No,Kent Walters,WaltersK7@Michigan.gov ,616-278-4350,https://www.michigan.gov/pfasresponse/investigations/sites-aoi/barry-county/ces-landfill-of-hastings,-85.29745,42.681226,2,MCL,Final,Hastings,No,,,2020/08/03 00:00:00+00,{E65478EC-47FC-4703-B11C-B886715332E9},,,,111
697201.5844,236140.9403,Hi-Mill Manufacturing Superfund Site ,Oakland County,1704 Highland Road (M-59) ,Highland Charter Twp,48356,Industrial,No,Jason Harnick,HarnickJ1@Michigan.gov ,517-599-7421,https://www.michigan.gov/pfasresponse/investigations/sites-aoi/oakland-county/hi-mill-manufacturing-superfund-site,-83.592446,42.650122,3,MCL,Final,Highland Twp,No,,,2020/08/03 00:00:00+00,{33DCA74C-085E-43EE-9772-BF9480F82836},,,,112
617809.6972,240113.6265,Kent Cleaners,Ingham County,2911 South Washington Avenue ,Lansing,48910,Laundromat/Dry Cleaner,No,Kim Sakowski,SakowskiK@Michigan.gov,517-582-2219,https://www.michigan.gov/pfasresponse/investigations/sites-aoi/ingham-county/kent-cleaners,-84.56001524,42.70246877,2,MCL,Final,Lansing,No,,,2020/08/03 00:00:00+00,{342191EA-7586-4F01-A60E-3EB0B15F3AF9},,,,113
635011.5826,179302.5601,Liberty Environmentalists Landfill,Jackson County,7900 South Meridian Road,Clark Lake,49234,Landfill,No,Brett Coulter,CoulterB1@Michigan.gov,517-614-7714,https://www.michigan.gov/pfasresponse/investigations/sites-aoi/jackson-county/liberty-environmentalists-landfill,-84.36471,42.152011,2,MCL,Final,Clarklake,No,,,2020/08/03 00:00:00+00,{B7FC96F9-FE68-436C-BCCB-58C2C172741A},,,,114
665345.4954,232613.8379,Livingston County Airport,Livingston County,3399 County Airport Drive,Howell,48843,Airport,No,Rebecca Taylor,TaylorR@Michigan.gov ,517-284-5160,https://www.michigan.gov/pfasresponse/investigations/sites-aoi/livingston-county/livingston-county-airport,-83.982,42.626,2,MCL,Final,Howell,No,,,2020/08/03 00:00:00+00,{DC6A429A-5C53-42CC-9589-73E49B4ED276},,,,115
670233.4056,235602.4018,Livingston County Landfill,Livingston County,E Barron Rd,Howell,48855,Landfill,Yes,Evin Maguire,MaguireE@Michigan.gov ,517-388-3525,https://www.michigan.gov/pfasresponse/investigations/sites-aoi/livingston-county/livingston-county-landfill,-83.9215,42.65182,2,MCL,Final,Howell,No,,,2020/08/03 00:00:00+00,{8E4C8D59-20DB-4479-9E14-A0D4017F5A5A},,,,116
722129.7376,269986.9682,Metamora Landfill Superfund Site,Lapeer County,1811 Dryden Road,Metamora,48455,Landfill,Yes,Erik Martinson,MartinsonE@Michigan.gov ,517-285-3978,https://www.michigan.gov/pfasresponse/investigations/sites-aoi/lapeer-county/metamora-landfill-superfund-site,-83.27503,42.947836,2,MCL,Final,Metamora,No,,,2020/08/03 00:00:00+00,{3B0AB11D-0804-4624-B126-A887F9F71B76},,,,117
692560.4557,214635.8617,"Michigan Seamless Tube, LLC",Oakland County,400 Mcmunn St,South Lyon,48178,Industrial,No,Joe Rogers,RogersJ5@Michigan.gov ,517-599-5312,https://www.michigan.gov/pfasresponse/investigations/sites-aoi/oakland-county/michigan-seamless-tube-llc,-83.656419,42.45773,2,MCL,Final,South Lyon,No,,,2020/08/03 00:00:00+00,{2DC05C64-F5DF-416C-A169-39A9B7F0AD8A},,,,118
647697.0953,489411.2987,Montmorency-Oscoda-Alpena Landfill,Montmorency County,6751 Landfill Road,Atlanta,49709,Landfill,No,John Ozoga ,OzogaJ@Michigan.gov,231-429-1718,https://www.michigan.gov/pfasresponse/investigations/sites-aoi/montmorency-county/montmorency-oscoda-alpena-landfill,-84.12584,44.94109,3,MCL,Final,Atlanta,No,,,2020/08/03 00:00:00+00,{4159A81C-7158-42DD-B565-BA754374AD3A},,,,119
497781.6329,300825.7595,Muskegon County Wastewater Management System Metro Wastewater Treatment Plant ,Muskegon County,698 North Maple Island Road,Muskegon,49442,Wastewater,TBD,Kevin Wojciechowski,WojciechowskiK@Michigan.gov,586-623-2948,https://www.michigan.gov/pfasresponse/investigations/sites-aoi/muskegon-county/muskegon-county-wwms-metro-wwtp,-86.02556,43.25861,2,MCL,Final,Muskegon,No,,,2020/08/03 00:00:00+00,{7EA9BCCF-56FD-4FCC-8C20-D9FE9BB2B270},,,,120
472826.836,315306.9976,Muskegon Chemical Company,Muskegon County,1725 Warner Street ,Whitehall,49461,Industrial,No,Nicolas Dawson,DawsonN1@Michigan.gov ,517-897-0912,https://www.michigan.gov/pfasresponse/investigations/sites-aoi/muskegon-county/muskegon-chemical-company,-86.333655,43.388554,2,MCL,Final,Whitehall,No,,,2020/08/03 00:00:00+00,{841DFF01-93D3-4DAF-9549-CB1FDCE4F22D},,,,121
725224.5672,243495.1037,Oakland Heights Development Landfill,Oakland County,2350 Brown Road ,Auburn Hills,48326,Landfill,Yes,Jim Bakun,BakunJ@Michigan.gov ,586-753-3834,https://www.michigan.gov/pfasresponse/investigations/sites-aoi/oakland-county/oakland-heights-development-landfill,-83.24783,42.70851,1,MCL,Final,Auburn Hills,No,,,2020/08/03 00:00:00+00,{0B98E2C8-182C-4BCA-AC87-D8A137B5F9DD},,,,122
672614.4363,304906.4527,Peoples Landfill,Saginaw County,4143 East Rathbun Road,Birch Run,48415,Landfill,Yes,Lori Babcock,BabcockL4@Michigan.gov,989-460-7352 ,https://www.michigan.gov/pfasresponse/investigations/sites-aoi/saginaw-county/peoples-landfill,-83.870768,43.275145,2,MCL,Final,Birch Run,No,,,2020/08/03 00:00:00+00,{10CCA187-B510-4BFF-8B53-41B125EB6EDF},,,,123
735634.9055,217290.8091,Reichhold East Area,Oakland County,3101 Bermuda,Ferndale,48220,Industrial,No,Nicole Sanabria,SanabriaN@Michigan.gov,517-281-7726,https://www.michigan.gov/pfasresponse/investigations/sites-aoi/oakland-county/reichhold-east-area,-83.13177,42.46953,4,MCL,Final,Ferndale,No,,,2020/08/03 00:00:00+00,{23682F86-6C70-4466-B03D-B23E67F60C37},,,,124
663948.6343,318639.8324,Saginaw Malleable Iron,Saginaw County,77 West Center Street ,Saginaw,48602,Industrial,No,"Andrew Karg
",KargA@Michigan.gov ,989-891-6948,https://www.michigan.gov/pfasresponse/investigations/sites-aoi/saginaw-county/saginaw-malleable-iron,-83.97338,43.400721,1,MCL,Final,Saginaw,No,,,2020/08/03 00:00:00+00,{8D2BAE63-884F-40B1-8FD3-36427C770F22},,,,125
739651.1756,251755.0725,South Macomb Disposal Authority Landfill #11 ,Macomb County,65921 Mound Road ,Washington,48095,Landfill,Yes,Jim Bakun,BakunJ@Michigan.gov ,586-753-3834,https://www.michigan.gov/pfasresponse/investigations/sites-aoi/macomb-county/south-macomb-disposal-authority-landfill-11-landfill,-83.0682584,42.7784224,1,MCL,Final,Washington Twp,No,,,2020/08/03 00:00:00+00,{471CF7CF-0E76-49F4-8115-41D0D1728FF6},,,,126
753030.5314,241755.6587,South Macomb Disposal Authority Landfills 9/9A ,Macomb County,24 Mile Road,Macomb Township,48042,Landfill,Yes,Samantha Belisle,BelisleS1@Michigan.gov,517-290-0686,https://www.michigan.gov/pfasresponse/investigations/sites-aoi/macomb-county/south-macomb-disposal-authority-landfills-9-9a,-82.909353,42.684108,1,MCL,Final,Macomb Twp,No,,,2020/08/03 00:00:00+00,{15108E45-1678-4CEC-9278-2C227088FFEA},,,,127
526309.9724,265023.1824,Steele Avenue Area,Kent County,1500 Block of Steele Avenue SW ,Grand Rapids,49507,Industrial,No,Brent Ritchie,Ritchieb1@michigan.gov,616-581-1782,https://www.michigan.gov/pfasresponse/investigations/sites-aoi/kent-county/steele-avenue-area,-85.675934,42.935709,3,MCL,Final,Grand Rapids,No,,,2020/08/03 00:00:00+00,{4B5ED0AD-7EBD-4F24-B7B4-A266338525BE},,,,128
550779.7336,139582.8139,Sturgis City Landfill,St. Joseph County,US-12 and Big Hill Road,Sturgis,49091,Landfill,Yes,Pablo Mora,MoraP@Michigan.gov,269-910-0136,https://www.michigan.gov/pfasresponse/investigations/sites-aoi/st-joseph-county/sturgis-city-landfill,-85.387928,41.804786,2,MCL,Final,Sturgis,No,,,2020/08/03 00:00:00+00,{6D954AA5-3D05-47F9-AEAA-8ACDFE0F2823},,,,129
764509.7225,325878.4662,Tri-City Recycling and Disposal Facility - Messman Site,Sanilac County,426 North Ruth Road,Carsonville,48419,Landfill,Yes,Lori Babcock,BabcockL4@Michigan.gov,989-460-7352 ,https://www.michigan.gov/pfasresponse/investigations/sites-aoi/sanilac-county/tri-city-recycling-and-disposal-facility-messman-site,-82.729143,43.436952,2,MCL,Final,Carsonville,No,,,2020/08/03 00:00:00+00,{41E1B6F2-1FCD-4A37-89E0-DFCD41D415E6},,,,130
664530.7768,272474.9766,Venice Park Recycling Disposal Facility,Shiawassee County,9536 East Lennon Road,Lennon,48449,Landfill,No,Evin Maguire,MaguireE@Michigan.gov ,517-388-3525,https://www.michigan.gov/pfasresponse/investigations/sites-aoi/shiawassee-county/venice-park-recycling-and-disposal-facility,-83.9801,42.98503,2,MCL,Final,Lennon,No,,,2020/08/03 00:00:00+00,{D73C58A2-3B3C-4292-898D-A8490DBE34E0},,,,131
704450.1085,188738.7595,Wayne Disposal Site 1 Landfill,Wayne County,49350 North I-94 Service Drive,Belleville,48111,Landfill,No,Christine Matlock,MatlockC2@Michigan.gov,517-290-4612,https://www.michigan.gov/pfasresponse/investigations/sites-aoi/wayne-county/wayne-disposal-site-1-landfill,-83.52123,42.22151,4,MCL,Final,Belleville,No,,,2020/08/03 00:00:00+00,{608038A4-3982-4CF2-918F-9C4E5A8ED9C7},,,,132
662607.6268,202613.4016,Werkner Road Landfill ,Washtenaw County,8027 Werkner Road,Chelsea,48118,Landfill,Yes,Brett Coulter,CoulterB1@Michigan.gov,517-614-7714,https://www.michigan.gov/pfasresponse/investigations/sites-aoi/washtenaw-county/werkner-road-landfill,-84.0240829,42.3564922,1,MCL,Final,Chelsea,No,,,2020/08/03 00:00:00+00,{37F3BD80-046D-4D98-9D2F-677C83D23097},,,,133
526526.5885,152572.4931,Westside Recycling and Disposal Facility ,St. Joseph County,14094 M-60 West,Three Rivers,49093,Landfill,Yes,"Nathan Whitmyer
",WhitmyerN@Michigan.gov,"269-286-1451
",https://www.michigan.gov/pfasresponse/investigations/sites-aoi/st-joseph-county/westside-recycling-and-disposal-facility,-85.679149,41.9231,2,MCL,Final,Three Rivers,No,,,2020/08/03 00:00:00+00,{3B99BEF6-1D85-49EF-9256-466E5DEE6221},,,,134
686570.9968,227385.6925,Brighton Township Dump,Livingston County,Corlett Drive,Brighton Township,48114,Landfill,Yes,Rebecca Taylor,TaylorR@Michigan.gov ,517-284-5160,https://www.michigan.gov/pfasresponse/investigations/sites-aoi/livingston-county/brighton-township-dump,-83.725,42.574,1,MCL,Final,Brighton Township,No,,,2020/08/03 00:00:00+00,{72DFD25F-CEC0-45DC-86A9-45D6E747F675},,,,135
609008.0881,217646.825,Eaton Rapids Municipal Landfill,Eaton County,Hogsback Rd,Eaton Rapids,48827,Landfill,Yes,Rebecca Taylor,TaylorR@Michigan.gov ,517-284-5160,https://www.michigan.gov/pfasresponse/investigations/sites-aoi/eaton-county/eaton-rapids-municipal-landfill,-84.6719,42.5015,1,MCL,Final,Eaton Rapids,No,,,2020/08/04 00:00:00+00,{A0153C9E-4D79-4FA8-A214-A9B9C85908B9},,,,136
472610.0189,139943.1989,Southeast Berrien County Landfill Authority,Berrien County,1540 Mayflower Road,Niles,49120,Landfill,No,Nathan Whitmyer,Nathan Whitmyer,269-286-1451,https://www.michigan.gov/pfasresponse/investigations/sites-aoi/berrien-county/southeast-berrien-county-landfill-authority,-86.328737,41.809668,2,MCL,Final,Niles,No,,,2020/08/03 00:00:00+00,{9D46D726-C5A8-4159-B057-F8A6EBC93320},,,,137
536520.8365,192945.8802,"Allied Paper, Inc./Portage Creek/Kalamazoo River Superfund Site, King Highway Landfill (OU3) ",Kalamazoo County,"Intersection of King Highway and Michigan Ave.
",Kalamazoo,49001,Landfill,No,Daniel Peabody,PeabodyD@Michigan.gov,517-285-3924,https://www.michigan.gov/pfasresponse/investigations/sites-aoi/kalamazoo-county/allied-paper-king-highway-landfill-ou3,-85.555816,42.286211,2,MCL,Final,Kalamazoo,No,,,2020/09/03 00:00:00+00,{91F0BE13-45AF-45ED-BBA2-F44465C84E9A},,,,138
537459.4358,192524.8047,"Allied Paper, Inc./Portage Creek/Kalamazoo River Superfund Site, Willow Boulevard/A-Site Landfill (OU2)",Kalamazoo County,Near the intersection of Lake Street and Olmstead Road,Kalamazoo Township,49048,Landfill,No,Daniel Peabody,PeabodyD@Michigan.gov,517-285-3924,https://www.michigan.gov/pfasresponse/investigations/sites-aoi/kalamazoo-county/allied-paper-willow-boulevard-landfill-ou2,-85.544463,42.28237,2,MCL,Final,Kalamazoo Township,No,,,2020/09/03 00:00:00+00,{955D13B9-5D30-4308-B6D0-5EDB664F326B},,,,139
733385.6615,195371.7177,Marathon Petroleum Company,Wayne County,1300 South Fort Street,Detroit,48217,Refinery,N/A,Eric Larson,LarsonE5@Michigan.gov ,586-255-6196,https://www.michigan.gov/pfasresponse/investigations/sites-aoi/wayne-county/marathon-petroleum-company,-83.168127,42.272948,1,MCL,Final,Detroit,No,,,2020/09/09 00:00:00+00,{D802D72D-F212-4DAC-AC29-B5B80915D263},,,,140
534637.0531,191153.751,"Allied Paper, Inc./Portage Creek/Kalamazoo River Superfund Site, Allied Paper Landfill (OU1).",Kalamazoo County,268 East Alcott,Kalamazoo,49001,Landfill,No,Daniel Peabody,PeabodyD@Michigan.gov,517-285-3924,https://www.michigan.gov/pfasresponse/investigations/sites-aoi/kalamazoo-county/allied-paper-landfill-ou1,-85.578781,42.270168,2,MCL,Final,"Kalamazoo
",No,,,2020/09/03 00:00:00+00,{1F371363-29B2-4DA5-B738-616166438259},,,,141
368293.7928,520073.4809,Great Lakes Pulp Company Landfill,Menominee County,7 1/2 Mile Road,Menominee ,49858,Landfill,Yes,Mary Ann St Antoine,StAntoineM@Michigan.gov ,989-370-8035,https://www.michigan.gov/pfasresponse/investigations/sites-aoi/menominee-county/great-lakes-pulp-company-landfill,-87.67548,45.220143,2,MCL,Final,Menominee Township,No,,,2020/08/28 00:00:00+00,{242CADAD-C955-4A9F-B3D7-941C165E6DBE},,,,142
689574.157,272697.9908,Hemphill Road Industrial Land – RACER,Genesee County,Southeast corner of the South Saginaw Street and Hemphill Road,Burton,48529,Industrial,Yes,Brian Kuberski,KuberskiB@Michigan.gov,517-243-7574,https://www.michigan.gov/pfasresponse/investigations/sites-aoi/genesee-county/racer-hemphill-road-industrial-land,-83.672983,42.981133,1,MCL,Final,Burton,No,,,2020/09/03 00:00:00+00,{1CD0950C-ED7E-42D5-A3C3-D77DDD79B535},,,,143
688998.2856,281308.8861,Lockhart Chemical Company,Genesee County,4302 James P Cole Boulevard,Flint,48505,Industrial,No,Brian Kuberski,KuberskiB@Michigan.gov,517-243-7574,https://www.michigan.gov/pfasresponse/investigations/sites-aoi/genesee-county/lockhart-chemical-company,-83.67709,43.058784,2,MCL,Final,Flint,No,,,2020/09/03 00:00:00+00,{C2AE3FBA-243D-4B8D-B858-66ECA3D7EA3C},,,,144
687045.0217,276067.8606,RACER Flint West,Genesee County,Northwest corner of Glenwood Avenue and Stevenson Street ,Flint,48503,Industrial,No,Shaun Shields,ShieldS5@Michigan.gov,517-331-8950,https://www.michigan.gov/pfasresponse/investigations/sites-aoi/genesee-county/racer-flint-west,-83.702846,43.012099,2,MCL,Final,Flint,No,,,2020/09/03 00:00:00+00,{016CB452-EB5C-4D59-B655-03B0215B7DF4},,,,145
682966.55,220956.4223,1279 Rickett Road ,Livingston County,1279 Rickett Road ,Brighton,48116,Industrial,Yes,Rebecca Taylor,TaylorR@Michigan.gov ,517-284-5160,https://www.michigan.gov/pfasresponse/investigations/sites-aoi/livingston-county/1279-rickett-road,-83.771,42.517,1,MCL,Final,Brighton,No,,,2020/09/09 00:00:00+00,{4AA6FAAC-5BCC-443D-8081-CF70599D28D7},,,,146
733950.6389,198244.104,Rouge Manufacturing Complex ,Wayne County,3001 Miller Road ,Dearborn,48126,Industrial,No,Jeremy Pepin,PepinJ2@Michigan.gov,517-219-2288,https://www.michigan.gov/pfasresponse/investigations/sites-aoi/wayne-county/rouge-manufacturing-complex,-83.1601,42.298628,1,MCL,Final,Dearborn,No,,,2020/09/09 00:00:00+00,{2F98B642-4D44-44C4-8AFA-815464B9107D},,,,147
737835.6554,239008.4714,Southeastern Oakland County Resource Recovery Authority (SOCRRA) Avon Landfill,Oakland County,1741 School Road,Rochester Hills,48307,Landfill,Yes,Aaron Darling,darlinga5@michigan.gov,586-942-1910,https://www.michigan.gov/pfasresponse/investigations/sites-aoi/oakland-county/socrra,-83.09585,42.66429,1,MCL,Final,Rochester Hills,No,,,2020/11/09 00:00:00+00,{DB4D3722-C106-4AE7-A028-69BE2B38E6F8},,,,148
525577.9338,266126.3862,Former Keeler Brass – Godfrey Ave,Kent County,955 and 945 Godfrey Avenue SW,Grand Rapids,49503,Plating,No,Peter Van Heest,VanHeestP@Michigan.gov ,616-439-8019,https://www.michigan.gov/pfasresponse/investigations/sites-aoi/kent-county/former-keeler-brass-godfrey-ave,-85.68485,42.94567,3,MCL,Final,Grand Rapids,No,,,2020/11/13 00:00:00+00,{277EE6AF-ACE3-41AB-820A-65D09FE67F2B},,,,149
735383.8762,190069.9291,BASF – Northworks Wyandotte,Wayne County,1609 Biddle Avenue,Wyandotte,48192,Industrial,No,Marc Messina,MessinaM@Michigan.gov,517-219-2394,https://www.michigan.gov/pfasresponse/investigations/sites-aoi/wayne-county/basf-northworks-wyandotte,-83.1461,42.22462,1,MCL,Final,Wyandotte,No,,,2020/11/24 00:00:00+00,{66A1ACC3-9E13-495B-99AE-9070B05AA578},,,,150
600914.2722,459461.4818,Grayling Army Airfield ,Crawford County,Grayling Area,Grayling,94105,Military,Yes,Lisa Kruse,KruseL@Michigan.gov,989-370-1424,https://www.michigan.gov/pfasresponse/investigations/sites-aoi/crawford-county/grayling-army-airfield,-84.724621,44.679698,1,Site,Final,Grayling,Yes,,,2017/11/03 00:00:00+00,{C6092150-4D35-40DA-95FF-77316F1560B3},,,,151
594355.4874,558286.2787,Pellston Regional Airport,Emmet County,1395 US-31,Pellston,49769,Airport,Yes,Lisa Kruse,KruseL@Michigan.gov,989-370-1424,https://www.michigan.gov/pfasresponse/investigations/sites-aoi/emmet-county/pellston-regional-airport,-84.788719,45.570022,1,MCL,Final,Pellston,No,,,2020/12/07 00:00:00+00,{425E2E67-67BB-48FC-9B80-75471844333E},,,,152
483865.1848,306322.2677,Former Northside Landfill,Muskegon County,E. McMillan Road,Muskegon,49445,Landfill,Yes,Matthew Pfister,PfisterM@Michigan.gov,616-485-1861,https://www.michigan.gov/pfasresponse/investigations/sites-aoi/muskegon-county/former-northside-landfill,-86.19714388,43.30795864,1,MCL,Final,Dalton Township,No,,,2021/01/15 00:00:00+00,{A4D42869-ADAF-485B-943F-94FE055113BA},,,,153
704143.2626,190539.2541,"Willow Run Airport, Ypsilanti",Wayne and Washtenaw County,801 Willow Run Airport,Ypsilanti,48198,Airport,No,Eric Larson,LarsonE5@Michigan.gov,586-255-6196,https://www.michigan.gov/pfasresponse/investigations/sites-aoi/wayne-county/willow-run-airport,-83.5243,42.2378,1,MCL,Final,Ypsilanti,No,,,2021/02/03 00:00:00+00,{FEF18814-A0A1-4C57-AD5B-AEEBCEB64B67},,,,154
574740.1104,304416.397,Former City of Stanton Landfill,Montcalm County,South end Grove Street,Stanton,48888,Landfill,Yes,Adam Donne,DonneA1@Michigan.gov,616-558-2070,https://www.michigan.gov/pfasresponse/investigations/sites-aoi/montcalm-county/former-city-of-stanton-landfill,-85.07697,43.28705,1,MCL,Final,Stanton,No,,,2021/02/11 00:00:00+00,{D9C940B9-E0FC-442D-875A-BA429659E175},,,,155
536863.3469,187274.9888,Kalamazoo/Battle Creek International Airport,Kalamazoo County,5235 Portage Road ,Portage,49002,Airport,Yes,Megan Watikunas,WatikunasM@Michigan.gov,269-568-7733,https://www.michigan.gov/pfasresponse/investigations/sites-aoi/kalamazoo-county/kalamazoo-battle-creek-international-airport,-85.55206108,42.23512617,2,MCL,Final,Portage,No,,,2021/03/01 00:00:00+00,{2FBE78E5-D750-4F67-BFBE-D48AAD9230F8},,,,156
415121.4429,574623.4929,Delta County Airport,Delta County,3300 Airport Road,Escanaba,49829,Airport,Yes,Elizabeth DeLiefde,DeLiefdeE@Michigan.gov ,906-235-0002,https://www.michigan.gov/pfasresponse/investigations/sites-aoi/delta-county/delta-county-airport,-87.0886,45.7183,1,MCL,Final,Escanaba,No,,,2021/03/18 00:00:00+00,{ED212AE8-C5D3-4AF4-B471-D82E1D23C879},,,,157
508527.1181,184499.1744,Paw Paw Plating,Van Buren  County,139 Commercial Street ,Paw Paw,49079,Plating,No,Rachel Golota,golotar@michigan.gov ,269-370-2404,https://www.michigan.gov/pfasresponse/investigations/sites-aoi/van-buren-county/paw-paw-plating,-85.895489,42.211095,2,MCL,Final,Paw Paw,No,,,2021/03/22 00:00:00+00,{5376DF73-626D-445E-A0DF-738B309194D4},,,,158
480294.8629,603813.4728,Zellar Residuals Management Area,Schoolcraft  County,Frankovich Road,Manistique,49854,Landfill,TBD,Mary Ann St Antoine,StAntoineM@Michigan.gov ,989-370-8035,https://www.michigan.gov/pfasresponse/investigations/sites-aoi/schoolcraft-county/zellar-residuals-management-area,-86.252333,45.985934,2,MCL,Final,Manistique,No,,,2021/03/22 00:00:00+00,{6E14D81A-2473-48C6-A75B-105CFE15C260},,,,159
755170.711,233881.8845,Axalta Coating Systems,Macomb County,400 North Groesbeck Highway,Mount Clemens,48043,Fire Related,No,Cynthia Paslawski,PaslawskiC@Michigan.gov,586-668-6433,https://www.michigan.gov/pfasresponse/investigations/sites-aoi/macomb-county/axalta-coating-systems,-82.886825,42.612547,1,MCL,Final,Mount Clemens,No,,,2021/03/26 00:00:00+00,{33A6D116-4080-420F-8635-1BC43818E34C},,,,160
490372.2941,249859.7978,Warner-Lambert Company LLC,Ottawa County,188 Howard Avenue,Holland,49424,Industrial,No,Nicole Sanabria,SanabriaN@Michigan.gov,517-281-7726,https://www.michigan.gov/pfasresponse/investigations/sites-aoi/ottawa-county/warner-lambert-company-llc,-86.11614,42.79968,1,MCL,Final,Holland,No,,,2021/03/31 00:00:00+00,{2FE82886-1685-49CE-A4EA-72DDB51F9D00},,,,161
182784.613,671974.3091,Gogebic-Iron County Airport,Gogebic County,E5560 Airport Road,Ironwood,49938,Airport,Yes,Steve Harrington,HarringtonS@Michigan.gov,906-869-2806,https://www.michigan.gov/pfasresponse/investigations/sites-aoi/gogebic-county/gogebic-iron-county-airport,-90.134941,46.524918,1,MCL,Final,Ironwood,No,,,2021/04/06 00:00:00+00,{07832FA8-26E2-4EA9-9CD6-524791F4981C},,,,162
532900.5419,465246.9134,Cherry Capital Airport,Grand Traverse County,727 Fly Don’t Drive,Traverse City,49686,Airport,Yes,"Brian Flickinger
","FlickingerB@Michigan.gov
","231-876-4456
",https://www.michigan.gov/pfasresponse/investigations/sites-aoi/grand-traverse-county/cherry-capital-airport,-85.58242,44.73815,1,MCL,Final,Traverse City,No,,,2021/04/14 00:00:00+00,{30F865CE-3CC2-46AA-9FC1-612F22E77B60},,,,163
532958.7907,466676.5198,"United States Coast Guard Air Station, Traverse City",Grand Traverse County,1169 Airport Access Road ,Traverse City,49686,Military,Yes,"Brian Flickinger
","FlickingerB@Michigan.gov
","231-876-4456
",https://www.michigan.gov/pfasresponse/investigations/sites-aoi/grand-traverse-county/east-bay-township-area-of-interest,-85.581591,44.751017,1,MCL,Final,Traverse City,Yes,,,2021/04/14 00:00:00+00,{E30CEF39-F684-4693-AA71-54491EEB909E},,,,164
699097.3894,297360.9604,Forest Waste Superfund Site,Genesee County,8359 East Farrand Road,Otisville,48463,Landfill,No,Nicolas Dawson,DawsonN1@Michigan.gov ,517-897-0912,https://www.michigan.gov/pfasresponse/investigations/sites-aoi/genesee-county/forest-waste-superfund-site,-83.547314,43.200644,,MCL,Final,Forest Township ,No,,,2021/04/29 00:00:00+00,{72E7AF11-1CCE-45B5-9D46-B563374C1280},,,,165
517305.4108,262859.8504,Fenske Landfill Inc.,Ottawa  County,2646 Kenowa Avenue,Tallmadge Charter Township,49544,Landfill,No,Kent Walters,WaltersK7@Michigan.gov ,616-278-4650,https://www.michigan.gov/pfasresponse/investigations/sites-aoi/ottawa-county/fenske-landfill-inc,-85.78636,42.916515,,MCL,Final,Tallmadge Township,No,,,2021/05/05 00:00:00+00,{933B3CDC-F2AC-4BD3-8896-1A6AEA72169B},,,,166
508457.7949,184530.7041,Production Rubber Products,Van Buren County,153 Commercial Street,Paw Paw,49079,Industrial,No,Rachel Golota,golotar@michigan.gov ,269-370-2404,https://www.michigan.gov/pfasresponse/investigations/sites-aoi/van-buren-county/production-rubber-products,-85.896328,42.21138,2,MCL,Final,Paw Paw,No,,,2021/05/12 00:00:00+00,{5E8C6658-5613-4689-9B97-13A502DC35E6},,,,167
479589.5546,413761.9603,Manistee Blacker Airport,Manistee County,2323 Airport Road,Manistee,49660,Airport,No,David Maynard,MaynardD@Michigan.gov,231-429-1656,https://www.michigan.gov/pfasresponse/investigations/sites-aoi/manistee-county/manistee-blacker-airport,-86.253766,44.275148,,MCL,Final,Manistee,No,,,2021/05/18 00:00:00+00,{E6C29E97-B6FA-4598-971A-19CDEA14E576},,,,168
695761.1118,252413.553,Former Falk Road Landfill,Oakland County,16000 Falk Road,Holly,48442,Landfill,Yes,Kimberly Ethridge,EthridgeK@Michigan.gov ,586-324-0183,https://www.michigan.gov/pfasresponse/investigations/sites-aoi/oakland-county/former-falk-road-landfill,-83.604301,42.79697,,MCL,Final,Holly Township,No,,,2021/05/10 00:00:00+00,{937B08D4-B749-48C1-BC22-C661393E9426},,,,169
646541.1344,272363.4733,Shiawassee Sanitary Landfill,Shiawassee County,2000 Helena Street,Owosso Township ,48867,Landfill,Yes,Jessica Tashman,TashmanJ@michigan.gov,517-245-3931,https://www.michigan.gov/pfasresponse/investigations/sites-aoi/shiawassee-county/shiawassee-sanitary-landfill,-84.200729,42.987761,1,MCL,Final,Owosso Township ,No,,,2021/06/03 00:00:00+00,{A715019D-CE2E-49B1-8587-9B3E98BBC1B4},,,,170
562236.1287,281277.6171,Belding Wastewater Treatment Plant,Ionia County,1500 Wells Street,Belding,48809,Wastewater,Yes,Kevin Wojciechowski,WojciechowskiK@Michigan.gov,586-623-2948,https://www.michigan.gov/pfasresponse/investigations/sites-aoi/ionia-county/belding-wastewater-treatment-plant,-85.23378,43.07987,,MCL,Final,Belding,No,,,2021/06/14 00:00:00+00,{5C7BDFD7-4FCC-4CDC-869D-A8FF3D0F2CB4},,,,171
538064.6315,209959.3843,Kavco Landfill,Barry County,West Day Road,Plainwell,49080,Landfill,TBD,Lynn Gosson,gossonl1@michigan.gov,616-648-6937,https://www.michigan.gov/pfasresponse/investigations/sites-aoi/barry-county/kavco-landfill,-85.535862,42.439337,2,MCL,Final,Prairieville Township,No,,,2021/07/09 00:00:00+00,{CA392EAC-F934-47FD-90F6-B0EDA8E0A1FB},,,,172
688508.9569,278436.1638,Former EI DuPont Flint,Genesee County,1555 James P. Cole Boulevard,Flint Township  ,48503,Industrial,No,Nicole Sanabria,SanabriaN@Michigan.gov,"517-281-7726
",https://www.michigan.gov/pfasresponse/investigations/sites-aoi/genesee-county/former-el-dupont-flint,-83.68408,43.03305,2,MCL,Final,Flint Township  ,No,,,2021/07/12 00:00:00+00,{293C8114-9A95-4AAF-9748-4C4D112CC5A5},,,,173
546335.6676,482480.3471,Key II Industrial Building ,Antrim County,603 Bridge St.,Elk Rapids,49629,Industrial,No,Jacob Palinsky,PalinskyJ@Michigan.gov,989-370-3053,https://www.michigan.gov/pfasresponse/investigations/sites-aoi/antrim-county/key-ii-industrial-building,-85.411152,44.89253599,,MCL,Final,Elk Rapids,No,,,2021/07/16 00:00:00+00,{BFF41352-ADB4-4654-8C78-A3EDE779E59B},,,,174
480782.5413,279931.582,JB Sims Generating Station,Ottawa County,1231 North 3rd Street,Grand Haven,49417,Industrial,No,Kent Walters,waltersk7@michigan.gov,616-278-4350,https://www.michigan.gov/pfasresponse/investigations/sites-aoi/ottawa-county/jb-sims-generating-station,-86.234312,43.070284,,MCL,Final,Grand Haven,No,,,2021/07/28 00:00:00+00,{C2A4DF5B-1A45-42D7-A49B-E3B4930C051A},,,,175
734295.5697,214710.5084,Former Hayes Lemmerz International Inc.,Oakland County,1600 West 8 Mile Road,Ferndale,48220,Industrial,No,Joseph Rogers,RogersJ5@Michigan.gov,517-599-5312,https://www.michigan.gov/pfasresponse/investigations/sites-aoi/oakland-county/former-hayes-lemmerz-international-inc,-83.14912,42.44672,2,MCL,Final,,No,,,2021/08/05 00:00:00+00,{DD25A5AD-1FC3-4A45-BB06-05AB5551576A},,,,176
745533.2164,203026.2345,Stroh Parking Structure,Wayne County,2935 Wright Street and 261 McDougall Street,Detroit,48226,Industrial,No,Eric A. Larson,larsone5@michigan.gov,586 255-6196,https://www.michigan.gov/pfasresponse/investigations/sites-aoi/wayne-county/stroh-parking-structure,-83.017621,42.338049,4,MCL,Final,,No,,,2021/08/05 00:00:00+00,{51259767-617F-4068-8E67-636F2642F29C},,,,177
690501.0049,283982.2222,Bray Road Site ,Genesee County,5200 Bray Road,Genesee Township,48505,Landfill,Yes,Evin Maguire,MaguireE@Michigan.gov,517-388-3525,https://www.michigan.gov/pfasresponse/investigations/sites-aoi/genesee-county/bray-road-site,-83.657719,43.082466,2,MCL,Final,,No,,,2021/08/18 00:00:00+00,{1BC39F3E-21F7-48CE-8A68-B96019450342},,,,178
709841.5146,195183.0611,Cyb Tools,Wayne County,42056 Michigan Avenue,Canton,48188,Plating,N/A,Eric A. Larson,LarsonE5@Michigan.gov ,586 255-6196,https://www.michigan.gov/pfasresponse/investigations/sites-aoi/wayne-county/cyb-tools,-83.453575,42.2780599,,MCL,Final,,No,,,2021/09/01 00:00:00+00,{C50941C1-0789-47E4-A531-9B6BF1026D70},,,,179
487082.3827,293190.4044,3523 Heights-Ravenna Road,Muskegon County,3523 Heights Ravenna Road,Muskegon (Fruitport Township),49444,Laundromat/Dry Cleaner,Yes,Peter Van Heest,vanheestp@michigan.gov,616-439-8019,https://www.michigan.gov/pfasresponse/investigations/sites-aoi/muskegon-county/3523-heights-ravenna-road,-86.15721,43.18978,,MCL,Final,,No,,,2021/09/03 00:00:00+00,{12E08ABA-BD2C-48D6-8CD6-9ECF470BBEA0},,,,180
673144.5358,293403.5083,Pollard Landfill,Genesee County,11349 McKinley Road,Montrose Township,48457,Landfill,No,Evin Maguire ,MaguireE@Michigan.gov,517-388-3525,https://www.michigan.gov/pfasresponse/investigations/sites-aoi/genesee-county/pollard-landfill,-83.86788552,43.17148,,MCL,Final,,No,,,2021/09/08 00:00:00+00,{4839719B-6CA6-473A-B82A-9E7FB0856EB1},,,,181
310834.962,738192.1454,Houghton County Memorial Airport,Houghton County,23810 Airpark Blvd,Calumet,49913,Airport,Yes,Ashley Miller,MillerA65@Michigan.gov,906-235-7435,https://www.michigan.gov/pfasresponse/investigations/sites-aoi/houghton-county/houghton-county-memorial-airport,-88.4941,47.1687,,MCL,Final,,No,,,2021/09/16 00:00:00+00,{2C50AF63-CA73-462C-8D91-C1F9B6C82C1C},,,,182
707267.4666,239947.5112,Pontiac Lake State Recreation Area,Oakland  County,7800 Gale Road,Waterford,48327,Fire Related,Yes,Ira Adolphues,AdolphuesI@Michigan.gov,586-295-6682,https://www.michigan.gov/pfasresponse/investigations/sites-aoi/oakland-county/pontiac-lake-state-recreation-area,-83.4683,42.6817,,MCL,Final,,No,,,2021/09/21 00:00:00+00,{B017087F-ECB8-4512-9478-F5CFFFC7C227},,,,183
711267.0861,238114.71,Oakland County International Airport ,Oakland County,6500 Highland Road,Waterford,48327,Airport,Yes,Ira Adolphues,AdolphuesI@Michigan.gov,586-295-6682,https://www.michigan.gov/pfasresponse/investigations/sites-aoi/oakland-county/oakland-county-international-airport,-83.4202,42.6641,,MCL,Final,,No,,,2021/09/21 00:00:00+00,{38DC4E2A-FD10-4304-BFE1-F0A46AEF1E8D},,,,184
534610.1192,259562.2764,Lacks Industries - Airlane ,Kent County,4260 Airlane Drive SE,Kentwood ,49512,Plating,No,Brent Ritchie,Ritchieb1@michigan.gov,616-581-1782,https://www.michigan.gov/pfasresponse/investigations/sites-aoi/kent-county/lacks-industries-airlane,-85.574577,42.886178,,MCL,Final,,No,,,2021/09/22 00:00:00+00,{E9183608-CBA0-429C-A6DE-A990B9B8C2D5},,,,185
718148.854,188568.597,Detroit Metropolitan Wayne County Airport,Wayne County,8600 Merriman Road,Romulus,48174,Airport,No,Eric Larson,LarsonE5@Michigan.gov,586-255-6196,https://www.michigan.gov/pfasresponse/investigations/sites-aoi/wayne-county/detroit-metropolitan-wayne-county-airport,-83.3554,42.2162,,MCL,Final,,No,,,2021/09/23 00:00:00+00,{EC3F0227-9B1A-45A8-9E54-FBFEA73E5078},,,,186
504506.7998,326176.2876,Kunnen’s Landfill,Newaygo County,3897 Ramshorn Drive ,"Fremont	",49412,Landfill,Yes,Kent Walters,WaltersK7@Michigan.gov,616-278-4350,https://www.michigan.gov/pfasresponse/investigations/sites-aoi/newaygo-county/kunnens-landfill,-85.94243,43.486837,,MCL,Final,,No,,,2021/09/27 00:00:00+00,{6BC8F995-0E84-4E72-ADE9-31DFFB7AD17C},,,,187
615171.3437,248317.6172,Capital Region International Airport ,Clinton County,4100 Capital City Blvd,Lansing,48906,Airport,Yes,Kim Sakowski,SakowskiK@Michigan.gov,517-582-2219,https://www.michigan.gov/pfasresponse/investigations/sites-aoi/clinton-county/capital-region-international-airport,-84.5905105,42.77675,,MCL,Final,,No,,,2021/10/12 00:00:00+00,{246F7167-894C-480E-A2FC-29893B3AAD2E},,,,188
538102.0079,173881.0859,Former Fox River Paper Company,Kalamazoo County,300 West Highway Street,Vicksburg,49097,Paper Manufacturing,TBD,Pablo Mora,MoraP@Michigan.gov,269-910-0136,https://www.michigan.gov/pfasresponse/investigations/sites-aoi/kalamazoo-county/former-fox-river-paper-company,-85.53802292,42.11444594,,MCL,Final,,No,,,2021/10/13 00:00:00+00,{34842E75-034E-43AC-A442-208AA8DEEA0E},,,,189
478796.7239,137048.0755,Buckeye Niles Terminal,Berrien County,2303 South Third Street,Niles,49120,Fire Related,Yes,Pablo Mora,morap@michigan.gov,269-910-0136,https://www.michigan.gov/pfasresponse/investigations/sites-aoi/berrien-county/buckeye-niles-terminal,-86.254202,41.783755,,MCL,Final,,No,,,2021/10/27 00:00:00+00,{4BEBFB81-4973-45C1-8A26-C282DC101412},,,,190
484745.8815,252179.7063,Southwest Ottawa County Landfill Superfund Site,Ottawa County,2901 North 160th Avenue,Park Township,49424,Landfill,Yes,Jacob Emmendorfer,EmmendorferJ2@Michigan.gov,517-245-5274,https://www.michigan.gov/pfasresponse/investigations/sites-aoi/ottawa-county/southwest-ottawa-county-landfill-superfund-site,-86.184987,42.820494,,MCL,Final,,No,,,2021/11/08 00:00:00+00,{3DC3AB5E-9F8D-4D5E-8479-8BD939A7707A},,,,191
786153.8254,273307.5305,Techni-Comp,St. Clair County,4152 Dove Road,Port Huron,48060,Landfill,Yes,Kim Ethridge,EthridgeK@Michigan.gov,586-324-0183,https://www.michigan.gov/pfasresponse/investigations/sites-aoi/st-clair-county/techni-comp,-82.48935,42.95619,,MCL,Final,,No,,,2021/11/03 00:00:00+00,{AA7489A5-1B9F-4A85-B02D-98A7ECFFD2D6},,,,192
666707.162,348820.8364,Bangor Township Landfill,Bay County,2305 Two Mile Road,Bay City,48706,Landfill,No,Diana Klida,KlidaD@Michigan.gov,989-280-7687,https://www.michigan.gov/pfasresponse/investigations/sites-aoi/bay-county/bangor-township-landfill,-83.92999,43.67176,,MCL,Final,,No,,,2021/11/12 00:00:00+00,{18B4C64C-F14C-46B7-8AEA-1568E8193D4D},,,,592
522091.0479,262931.2103,Spartan Chemical Superfund Site,Kent County,2539 28th Street Southwest,Calgary,49509,Industrial,No,Megan Cynar,CynarM@Michigan.gov,517-256-2681,https://www.michigan.gov/pfasresponse/investigations/sites-aoi/kent-county/spartan-chemical-superfund-site,-85.727728,42.917019,,MCL,Final,,No,,,2021/12/16 00:00:00+00,{A7F51663-A43C-4CAB-8057-C0DB9FFA2C1E},,,,992
560714.489,263204.3307,Saranac Landfill,Ionia County,4857 Ivan Road,Saranac,48881,Landfill,Yes,Kent Walters,Waltersk7@michigan.gov,616-278-4350,https://www.michigan.gov/pfasresponse/investigations/sites-aoi/ionia-county/saranac-landfill,-85.2545426,42.917272,,MCL,Final,,No,,,2022/01/10 00:00:00+00,{C88E13FB-02AC-4967-BB20-08B77F4E43E5},,,,1392
412284.0417,579851.954,Delta County Landfill,Delta County,5701 19th Avenue North,Escanaba,49829,Landfill,No,John J. Ozoga,OzogaJ@michigan.gov,231-429-1718,https://www.michigan.gov/pfasresponse/investigations/sites-aoi/delta-county/delta-county-landfill,-87.126,45.765,,MCL,Final,,No,,,2022/01/13 00:00:00+00,{943824C7-5DCB-4BF4-BE97-70891E8B0C5C},,,,1792
502226.8911,246253.414,Deyoung Landfill,Allegan County,SW Corner of 76th Ave and Ottogan,Zeeland,49423,Landfill,Yes,Ray Spaulding ,SpauldingR1@Michigan.gov ,517-290-2401,https://www.michigan.gov/pfasresponse/investigations/sites-aoi/allegan-county/deyoung-landfill,-85.9712216,42.76722652,,MCL,Final,,No,,,2022/01/13 00:00:00+00,{062F736D-AC6E-442F-AEE2-7F9463C2DA81},,,,1793
475217.1666,296237.351,Former S.D. Warren (SAPPI),Muskegon County,2400 Lakeshore Drive,Muskegon,49441,Paper Manufacturing,No,Jason Poll,PollJ@michigan.gov,616-446-1263,https://www.michigan.gov/pfasresponse/investigations/sites-aoi/muskegon-county/former-sd-warren-sappi,-86.3033374,43.216943,,MCL,Final,,No,,,2022/01/24 00:00:00+00,{27220A8D-5FA9-487C-82B6-7F7DB46A2AF6},,,,2192
521398.3303,266010.1458,Riverside Sand and Gravel Landfill,Kent County,2780 Butterworth Drive,Grand Rapids,49534,Landfill,No,Kent Walters,WaltersK7@Michigan.gov,616-278-4350,https://www.michigan.gov/pfasresponse/investigations/sites-aoi/kent-county/riverside-sand-and-gravel-landfill,-85.736084,42.944765,,MCL,Final,,No,,,2022/02/02 00:00:00+00,{34E88F09-4033-4445-94CE-C394DD69BD69},,,,2592
725416.8492,244621.0507,"LymTal International, Inc.",Oakland County,4150 S. Lapeer Road,Lake Orion,48359,Fire Related,Yes,Cynthia Paslawski,PaslawskiC@Michigan.gov,586-668-6433,https://www.michigan.gov/pfasresponse/investigations/sites-aoi/oakland-county/lymtal-international-inc,-83.24503,42.718586,,MCL,Final,,No,,,2022/02/23 00:00:00+00,{C88C6600-1D3F-4B38-9068-6B4B9C9F0DED},,,,2992
454021.8817,647328.8268,Wood Island Landfill,Alger County,"Wood Island Waste Management, Inc., E1081 State Highway M-28",Wetmore,49862,Landfill,No,John J. Ozoga III,OzogaJ@Michigan.gov,231-429-1718,https://www.michigan.gov/pfasresponse/investigations/sites-aoi/alger-county/wood-island-landfill,-86.59573,46.37632,,MCL,Final,,No,,,2022/03/08 00:00:00+00,{DC73B092-1C98-4402-A272-950CD1B49483},,,,3392
606255.2582,591956.8863,City of Mackinac Island Landfill ,Mackinac County,3883 Dousman Street,Mackinac Island,49757,Landfill,No,Mary Ann St. Antoine,StantoineM@Michigan.gov,989-370-8035,https://www.michigan.gov/pfasresponse/investigations/sites-aoi/mackinac-county/city-of-mackinac-island-landfill,-84.628891,45.871278,,MCL,Final,,No,,,2022/03/11 00:00:00+00,{B9C34B6B-6686-4323-984A-A51248181B74},,,,3393
497698.2423,345439.9141,Eagle Ottawa Newaygo Farms ,Oceana & Newaygo County,204th Avenue,Walkerville,49459,Tannery,Yes,Kelly Moss,MossK@Michigan.gov ,616-215-4588,https://www.michigan.gov/pfasresponse/investigations/sites-aoi/oceana-county/eagle-ottawa-newaygo-farms,-86.026662,43.660301,,MCL,Final,,No,,,2022/03/11 00:00:00+00,{9C5083D4-E1A6-4B7C-B7EC-A3CFE1733E39},,,,3394
475951.4957,318294.0238,Former Whitehall Wastewater Treatment Plant,Muskegon County,2000 Holton-Whitehall Road,Whitehall,49461,Wastewater,Yes,Kevin Wojciechowski ,WojciechowskiK@Michigan.gov,586-623-2948,https://www.michigan.gov/pfasresponse/investigations/sites-aoi/muskegon-county/former-whitehall-wwtp,-86.295205,43.415548,,MCL,Final,,No,,,2022/03/14 00:00:00+00,{DBD08394-2D79-4F23-A152-7E3488EF51F7},,,,3793
790024.9384,276985.9485,EB Eddy Paper/ Domtar Paper,Saint Clair County,1700 Washington Avenue,Port Huron,48060,Paper Manufacturing,No,Kim Ethridge,EthridgeK@Michigan.gov,586-324-0183,https://www.michigan.gov/pfasresponse/investigations/sites-aoi/st-clair-county/eb-eddy-paper-domtar-paper,-82.440031,42.987801,,MCL,Final,,No,,,2022/03/16 00:00:00+00,{B8DF3C3F-4316-4CD9-BF14-025328305672},,,,4193
483052.8898,279279.6836,Challenge Machinery Company,Ottawa County,295 N. Beechtree Street,Grand Haven,49417,Industrial,No,Kelly Moss,MossK@michigan.gov,616-215-4588,https://www.michigan.gov/pfasresponse/investigations/sites-aoi/ottawa-county/challenge-machinery-company,-86.20641267,43.06446307,3,MCL,Final,,No,,,2022/03/25 00:00:00+00,{39BA285F-FEBA-40B2-B63D-B7D7C29FDE37},,,,4593
535945.0983,286611.6085,Wolverine Sole Plant (former),Kent County,485 Wolverine Drive NE,Rockford,49341,Industrial,No,Leah Gies,GiesL1@Michigan.gov,616-215-4781,https://www.michigan.gov/pfasresponse/investigations/sites-aoi/kent-county/wolverine-sole-plant,-85.55637632,43.12967767,,MCL,Final,,No,,,2022/03/30 00:00:00+00,{15A81F03-FCC4-4233-9EC8-E189C9A8BFDA},,,,4993
479841.4161,143348.0472,Toefco Engineered Coating Systems Inc,Berrien County,1220 North 14th Street,Niles,49120,Industrial,No,Kathleen Ekstrum,EkstrumK@Michigan.gov,269-568-1373,https://www.michigan.gov/pfasresponse/investigations/sites-aoi/berrien-county/toefco-engineered-coating-systems,-86.2418,41.8405,,MCL,Final,,No,,,2022/04/07 00:00:00+00,{38A27975-7C18-4666-B362-D037EB604E17},,,,4994
561065.9939,194498.1422,Battle Creek Executive Airport  ,Calhoun County,15551 S. Airport Road,Battle Creek,49015,Airport,Yes,Gregg Brettmann,BrettmannG@Michigan.gov,269-567-3528,https://www.michigan.gov/pfasresponse/investigations/sites-aoi/calhoun-county/battle-creek-executive-airport,-85.257965,42.29853,,MCL,Final,,No,,,2022/04/28 00:00:00+00,{05F9661D-954C-45A9-BBA4-431E779ED748},,,,5393
561746.1136,196918.6225,Kellogg Air National Guard Base Battle Creek ,Calhoun County,3545 Mustang Ave.,Battle Creek,49037,Military,Yes,Gregg Brettmann,BrettmannG@Michigan.gov,269-567-3528,https://www.michigan.gov/pfasresponse/investigations/sites-aoi/calhoun-county/kellogg-angb,-85.24944,42.32027,,MCL,Final,,Yes,,,2022/04/28 00:00:00+00,{356E80BD-1A39-4EF0-92BE-D671E9822B9B},,,,5394
615381.0162,247714.9883,MIARNG Lansing Hangar         ,Clinton County,3700 Capital City Blvd ,Lansing ,48906,Military,No,Kim Sakowski,SakowskiK@michigan.gov      ,517-582-2219,https://www.michigan.gov/pfasresponse/investigations/sites-aoi/clinton-county/miarng-lansing-hangar,-84.588074,42.7712915,,MCL,Final,,No,,,2022/04/28 00:00:00+00,{0D22402F-A76B-4878-814C-1A32292643CA},,,,5395
557695.8427,529734.48,Charlevoix Municipal Well Field ,Charlevoix  County,Lake Shore Drive,Charlevoix ,49720,Laundromat/Dry Cleaner,No,Nic Dawson,DawsonN1@Michigan.gov,517-897-0912,https://www.michigan.gov/pfasresponse/investigations/sites-aoi/charlevoix-county/charlevoix-municipal-well-field,-85.261833,45.3170472,,MCL,Final,,No,,,2022/05/05 00:00:00+00,{B4FAAF5B-E8D1-4271-A236-3B590F43C55A},,,,5793
609671.7836,236925.5942,State Secondary Complex,Eaton County,7426 N. Canal,Dimondale,48821,Fire Related,Yes,Kim Sakowski,SakowskiK@Michigan.gov,517-582-2219,https://www.michigan.gov/pfasresponse/investigations/sites-aoi/eaton-county/state-secondary-complex ,-84.66,42.675,,MCL,Final,,No,,,2022/05/09 00:00:00+00,{88E68609-70FD-457F-B9A8-921B5F1D8939},,,,6193
544699.5522,241048.2939,Middleville Wastewater Treatment Plant,Barry County,607 Sheridan Street,Middleville,49333,Wastewater,Yes,Kevin Wojciechowski,WojciechowskiK@Michigan.gov,586-623-2948,https://www.michigan.gov/pfasresponse/investigations/sites-aoi/barry-county/middleville-wwtp,-85.4525872,42.7189068,,MCL,Final,,No,,,2022/05/24 00:00:00+00,{AA7F90BD-F496-4EF6-A57B-0C4D3010CD9F},,,,6593
532737.5689,284688.3303,North Kent Landfill,Kent County,2908 10 Mile Road NE,Plainfield Township,49341,Landfill,Yes,Leah Gies,GiesL1@Michigan.gov,616-215-4781,https://www.michigan.gov/pfasresponse/investigations/sites-aoi/kent-county/north-kent-landfill,-85.59593,43.112514,,MCL,Final,,No,,,2022/05/27 00:00:00+00,{C0E80155-7585-471B-9DA6-2BA996F802B2},,,,6993
335260.7388,586946.4497,Ford Airport-Iron Mountain,Dickinson  County,400 Riverhills Road,Kingsford,49802,Airport,Yes,Andrew Reed,ReedA20@michigan.gov,906-250-7532,https://www.michigan.gov/pfasresponse/investigations/sites-aoi/dickinson-county/ford-airport-iron-mountain,-88.11852,45.814743,,MCL,Final,,No,,,2022/06/03 00:00:00+00,{2C301215-9E5C-4EB6-813A-8AC1B483DE83},,,,7393
708659.5423,257593.8029,Brandon School District Wastewater Treatment Plant,Oakland County,1050 Ortonville Road,Ortonville,48462,Wastewater,No,Kevin Wojciechowski,WojciechowskiK@Michigan.gov,586-291-3418,https://www.michigan.gov/pfasresponse/investigations/sites-aoi/oakland-county/brandon-school-district-wwtp,-83.444716,42.8401436,,MCL,Final,,No,,,2022/06/06 00:00:00+00,{EB9615A0-6ACE-449A-B21A-DE8A2F308316},,,,7793
708349.0205,258313.5245,360 South Street Car Wash,Oakland County,360 South Street,Ortonville,48462,Wastewater,Yes,Kevin Wojciechowski,WojciechowskiK@Michigan.gov,586-291-3418,https://www.michigan.gov/pfasresponse/investigations/sites-aoi/oakland-county/360-south-street-car-wash,-83.448244,42.846707,,MCL,Final,,No,,,2022/06/06 00:00:00+00,{0D2F6D4B-DC99-48AF-8A57-3FFA4BA79B4D},,,,7794
713152.3436,241156.8047,"General Motors Customer Care and Aftersales Facility, Waterford",Oakland County,5260 Williams Lake Road,Waterford Township,48329,Industrial,Yes,Nicole Sanabria,SanabriaN@Michigan.gov ,517-281-7726,https://www.michigan.gov/pfasresponse/investigations/sites-aoi/oakland-county/general-motors-ccaf,-83.39605,42.690953,,MCL,Final,,No,,,2022/06/07 00:00:00+00,{A332724E-4AEC-47D6-A227-814E109FAF9F},,,,7796
705849.4707,223573.8071,850 Ladd Road,Oakland County,850 Ladd Road,Walled Lake,48390,Industrial,Yes,Colleen McLean,McleanC1@Michigan.gov,586-554-6489,https://www.michigan.gov/pfasresponse/investigations/sites-aoi/oakland-county/850-ladd-road,-83.491608,42.534706,,MCL,Final,,No,,,2022/06/09 00:00:00+00,{A14F717E-1576-4560-80CE-4F96A5BFD426},,,,7797
698799.3197,216331.2281,Lyon Township Wastewater Treatment Plant ,Oakland County,53656 Ten Mile Road,South Lyon,48178,Wastewater,Yes,Kevin Wojciechowski,WojciechowskiK@Michigan.gov,586-623-2948,https://www.michigan.gov/pfasresponse/investigations/sites-aoi/oakland-county/lyon-township-wastewater-treatment-plant,-83.579977,42.471387,,MCL,Final,,No,,,2022/06/22 00:00:00+00,{414338DB-7CE6-4E84-9261-397C5DFE3F99},,,,8193
584128.0681,379159.2594,Kleen Gene’s Laundromat,Clare County,402 South Bringold Avenue,Lake George,48633,Laundromat/Dry Cleaner,Yes,Kevin Wojciechowski,WojciechowskiK@Michigan.gov,586-291-3418,https://www.michigan.gov/pfasresponse/investigations/sites-aoi/clare-county/kleen-genes-laundromat,-84.949439,43.958976,,MCL,Final,,No,,,2022/07/08 00:00:00+00,{F3766423-0301-4723-A3AD-898BBF44E643},,,,8593
574148.7963,303781.3563,Stanton Wastewater Treatment Plant,Montcalm County,Brown Road,Stanton,48888,Wastewater,No,Kevin Wojciechowski,WojciechowskiK@Michigan.gov,586-291-3418,https://www.michigan.gov/pfasresponse/investigations/sites-aoi/montcalm-county/stanton-wwtp,-85.084346,43.281392,,MCL,Final,,No,,,2022/07/11 00:00:00+00,{98F565A0-674F-4E56-8BE2-076355D82E02},,,,8993
536117.0883,199265.6192,Hydro Extrusion USA,Kalamazoo County,5575 North Riverview Drive,Kalamazoo,49004,Industrial,Yes,Rachel Golota,GolotaR@Michigan.gov,269-370-2404,https://www.michigan.gov/pfasresponse/investigations/sites-aoi/kalamazoo-county/hydro-extrusion-usa,-85.56027646,42.34314142,,MCL,Final,,No,,,2022/07/14 00:00:00+00,{9C737380-5DC4-4A76-88D7-247ED364E436},,,,9393
539833.3006,250591.4846,Caledonia Wastewater Treatment Plant,Kent County,8701 Cherry Valley Road,Caledonia,49316,Wastewater,TBD,Kevin Wojciechowski,WojciechowskiK@Michigan.gov,586-291-3418,https://www.michigan.gov/pfasresponse/investigations/sites-aoi/kent-county/caledonia-wwtp,-85.511295,42.805127,,MCL,Final,,No,,,2022/11/15 00:00:00+00,{1AF0B56F-A393-4B30-8509-AE53AA4A3DA0},,,,9793
599113.5831,339988.4441,104 North Kinney,Isabella County,104 North Kinney,Mt. Pleasant,78832,Laundromat/Dry Cleaner,No,Matthew Werle,WerleM@Michigan.gov,989-385-1680,https://www.michigan.gov/pfasresponse/investigations/sites-aoi/isabella-county/104-north-kinney-avenue,-84.77,43.60444401,,MCL,Final,,No,,,2022/08/24 00:00:00+00,{525AE972-76D3-45CB-8DAA-9AB54614BFFB},,,,10193
512135.8106,220663.2609,Rockwell International Corporation,Allegan County,1 Glass Street,Allegan,49010,Industrial,No,Shelby Bahaw,BahawS@Michigan.gov,517-388-4899,https://www.michigan.gov/pfasresponse/investigations/sites-aoi/allegan-county/rockwell-international-corporation,-85.850799,42.536674,,MCL,Final,,No,,,2022/08/29 00:00:00+00,{600A916E-05B2-4346-97B4-CA24ACC42B67},,,,10593
683263.1477,270719.1578,Bishop International Airport Authority,Genesee County,3425 W. Bristol Road,Flint,48507,Airport,No,Brian Kuberski,Kuberskib@michigan.gov,517-243-7574,https://www.michigan.gov/pfasresponse/investigations/sites-aoi/genesee-county/bishop-international-airport-authority,-83.751011,42.964886,2,MCL,Final,,No,,,2022/08/29 00:00:00+00,{51E4B4EE-F878-4B1E-9068-FA6DC95A76E6},,,,10596
691048.5181,278294.482,Delphi Plants 400 and 500,Genesee County,2926 Davison Road,Flint,48506,Industrial,No,Nicole Sanabria,SanabriaN@Michigan.gov ,517-281-7726,https://www.michigan.gov/pfasresponse/investigations/sites-aoi/genesee-county/delphi-plants-400-500,-83.65297,43.031133,,MCL,Final,,No,,,2022/08/29 00:00:00+00,{F2BDE0EE-6FC1-412F-8551-8FB7C85772A5},,,,10597
671009.1365,229199.3205,Lucy Road Landfill,Livingston County,Lucy Road,Howell ,48843,Landfill,Yes,Rebecca Taylor,taylorr@michigan.gov,517-294-5160,https://www.michigan.gov/pfasresponse/investigations/sites-aoi/livingston-county/lucy-road-landfill,-83.914,42.594,1,MCL,Final,,No,,,2022/10/17 00:00:00+00,{48403ED6-B6F9-4836-9A38-DE34D0944CFB},,,,10993
479867.4646,605690.6488,Haywire Landfill,Schoolcraft County,Highway M-94,"Manistique, Hiawatha Township",49854,Landfill,No,Mary Ann St Antoine,StAntoineM@Michigan.gov,989-370-8035,https://www.michigan.gov/pfasresponse/investigations/sites-aoi/schoolcraft-county/haywire-landfill,-86.257929,46.002817,2,MCL,Final,,No,,,2022/10/31 00:00:00+00,{4C7355C5-81CA-4760-B1E1-D1141E8CC6EE},,,,11393
619558.6522,247524.7197,"Daggett Sand & Gravel, Inc. Landfill",Ingham County,930 East Sheridan Road,Lansing,48906,Landfill,No,Evin Maguire,MaguireE@Michigan.gov ,517-388-3525,https://www.michigan.gov/pfasresponse/investigations/sites-aoi/ingham-county/daggett-sand-gravel-landfill,-84.537058,42.768922,,MCL,Final,,No,,,2022/12/01 00:00:00+00,{364DD340-466B-4AE2-8685-C251408BFA55},,,,11793
339391.0015,585311.6314,Grede LLC Iron Mountain (Grede Landfill),Dickinson County,801 South Carpenter Avenue,Kingsford,49802,Landfill,Yes,Mary Ann St Antoine,StAntoineM@Michigan.gov ,989-370-8035,https://www.michigan.gov/pfasresponse/investigations/sites-aoi/dickinson-county/grede-landfill,-88.06484,45.801012,,MCL,Final,,No,,,2022/12/06 00:00:00+00,{76D95884-4942-4A4E-80A5-544133923FDC},,,,12193
722449.5552,238118.0114,GM LLC Pontiac North Campus,Oakland County,1 Pontiac Plaza, Pontiac               ,48340,Industrial,No,Nicole Sanabria,SanabriaN@michigan.gov ,517-281-7726,https://www.michigan.gov/pfasresponse/investigations/sites-aoi/oakland-county/gm-lcc-pontiac-north-campus,-83.28383,42.66093,,MCL,Final,,No,,,2022/12/13 00:00:00+00,{B24AFC81-70C7-4A04-A084-8BEFFA7F1DB9},,,,12593
477291.6067,203680.1411,Former Four Star Property,Van Buren County,1391 Kalamazoo Street (formerly 1415 Kalamazoo Street),South Haven,49090,Plating,Yes,Rachel Golota,GolotaR@Michigan.gov,269-370-2404,https://www.michigan.gov/pfasresponse/investigations/sites-aoi/van-buren-county/four-star-property,-86.274455,42.383659,,MCL,Final,,No,,,2023/01/13 00:00:00+00,{70A03BBF-A11A-4DF8-90FC-7A1F49A5AAF9},,,,13393
479021.2008,303737.8142,Former BASF Muskegon,Muskegon County,1740 Whitehall Rd,North Muskegon,49445,Industrial,TBD,Joe Rogers,RogersJ5@Michigan.gov ,517-599-5312,https://www.michigan.gov/pfasresponse/investigations/sites-aoi/muskegon-county/former-basf-muskegon,-86.256773,43.28458,,MCL,Final,,No,,,2023/02/03 00:00:00+00,{323B9335-9D50-4767-A8F0-B0D89E950515},,,,13793
678711.6891,214320.1285,Hamburg Township WWTP,Livingston County,6400 East M-36,Hamburg,48139,Wastewater,Yes,Kevin Wojciechowski,wojciechowskik@michigan.gov,586-623-2948,https://www.michigan.gov/pfasresponse/investigations/sites-aoi/livingston-county/hamburg-township-wwtp,-83.82489,42.45827,,MCL,Final,,No,,,2023/02/06 00:00:00+00,{FF167414-CC15-46AC-82DE-C5D3EB84AFA3},,,,13794
666876.3576,232346.4232,2440 West Highland Road – Upland Area of the Shiawassee River Superfund Site,Livingston County,2440 W Highland Road,Howell,48843,Industrial,Yes,Mary B. Schafer,Schaferm2@Michigan.gov,517-582-1663,https://www.michigan.gov/pfasresponse/investigations/sites-aoi/livingston-county/2440-west-highland-road,-83.963417,42.623256,,MCL,Final,,No,,,2023/02/06 00:00:00+00,{222CA67B-594E-4D27-BCAC-4D67EAEE0F5D},,,,13795
477477.5405,203714.1658,1421 Kalamazoo Street ,Van Buren County,1421 Kalamazoo Street ,South Haven,49090,Industrial,Yes,Rachel Golota,GolotaR@Michigan.gov,269-370-2404,https://www.michigan.gov/pfasresponse/investigations/sites-aoi/van-buren-county/1421-kalamazoo-street,-86.272198,42.38397,,MCL,Final,,No,,,2023/03/01 00:00:00+00,{925FD323-5C65-427C-85CB-3F966A918E92},,,,14193
591079.0053,370013.211,Surrey Township Landfill,Clare County,7590 Old State Road,Farwell,48622,Landfill,Yes,Scott Malusi,malusis@michigan.gov,989-891-6983,https://www.michigan.gov/pfasresponse/investigations/sites-aoi/clare-county/surrey-township-landfill,-84.86439,43.87583,,MCL,Final,,No,,,2023/03/03 00:00:00+00,{9E5C5ACA-9543-42C3-8C42-73902B065F91},,,,14593
512968.2558,308015.8588,Riveridge Sewage Lagoon,Newaygo County,12624 S Ferris Ave,Grant,49327,Wastewater,No,Kent Walters,WaltersK7@Michigan.gov,616-278-4350,https://www.michigan.gov/pfasresponse/investigations/sites-aoi/newaygo-county/riveridge-sewage-lagoon,-85.838277,43.323207,,MCL,Final,,No,,,2023/04/03 00:00:00+00,{46079EDA-A8CB-4172-923C-203A039646AD},,,,14993
521197.3092,287922.4362,Sparta Foundry Waste Facility ,Kent County,9737 Laubach Ave,Sparta,49345,Landfill,No,Kent Walters,WaltersK7@Michigan.gov,616-278-4350,https://www.michigan.gov/pfasresponse/investigations/sites-aoi/kent-county/sparta-foundry-waste-facility,-85.737629,43.142077,,MCL,Final,,No,,,2023/04/18 00:00:00+00,{957EDC46-FB06-4C12-B989-2B12746C17B4},,,,15393
676311.7675,222012.1255,Former Genoa Township Oak Pointe WWTP   ,Livingston County,5341 Brighton Road,Brighton,48116,Wastewater,TBD,Kevin Wojciechowski ,wojciechowskik@michigan.gov,586-623-2948,https://www.michigan.gov/pfasresponse/investigations/sites-aoi/livingston-county/former-genoa-township-oak-pointe-wwtp,-83.851653,42.52808,,MCL,Final,,No,,,2023/04/20 00:00:00+00,{8AAE06C9-589A-4BA2-BA38-BE6EC8F1A3D0},,,,15793
742888.7896,220790.6646,U.S. Army Garrison - Detroit Arsenal,Macomb County,6501 East 11 Mile Road,Warren,48397,Military,No,Beth Place,placeb1@michigan.gov,517-899-7524,https://www.michigan.gov/pfasresponse/investigations/sites-aoi/macomb-county/us-army-garrison-detroit-arsenal,-83.042092,42.498754,,MCL,Final,,Yes,,,2023/07/18 00:00:00+00,{C98B8E2F-5239-4670-BB81-E4C249F5A533},,,,16193
528211.202,236343.9955,Wayland Recycling Inc.,Allegan County,763 W. Elm Street,Wayland,49348,Industrial,Yes,Kathleen Ekstrum,EkstrumK@michigan.gov,269-568-1373,https://www.michigan.gov/pfasresponse/investigations/sites-aoi/allegan-county/wayland-recycling,-85.65420423,42.67739008,,Site,Final,,No,,,2023/05/02 00:00:00+00,{267C6C9B-3F17-41EA-BAD5-1731DF595698},,,,16593
577625.6804,270173.7958,Ionia City Landfill,Ionia County,Cleveland St.,Ionia,48846,Landfill,No,Jason Harnick,Harnickj1@michigan.gov,517-599-7421,https://www.michigan.gov/pfasresponse/investigations/sites-aoi/ionia-county/ionia-city-landfill,-85.04633345,42.97842177,,Site,Final,,No,,,2023/05/10 00:00:00+00,{B19DC0A8-17DE-424B-93A1-0BED3AE50F85},,,,16994
731457.2157,176829.314,DSC McLouth Steel-Gibraltar Plant,Wayne County,28000 West Jefferson,Gibraltar,48173,Landfill,Yes,Samantha Belisle,belisles1@michigan.gov,517-290-0686,https://www.michigan.gov/pfasresponse/investigations/sites-aoi/wayne-county/mclouth-steel-gibraltar,-83.19901,42.106639,,Site,Final,,No,,,2023/05/11 00:00:00+00,{345CB8A3-D6A9-45D4-82D4-6F9FFAE0197F},,,,16995
525105.3722,212666.329,Former Menasha Paper Mill,Allegan  County,320 North Farmer,Otsego,49078,Paper Manufacturing,Yes,Ray Spaulding,spauldingr1@michigan.gov,517-290-2401,https://www.michigan.gov/pfasresponse/investigations/sites-aoi/allegan-county/former-menasha-paper-mill,-85.693278,42.464298,,Site,Final,,No,,,2023/05/10 00:00:00+00,{48CC4530-4A73-4DC3-A665-EB3D9F7DCA1E},,,,17393
525877.5043,213162.8121,Menasha Landfill,Allegan  County,255 East River Street,Otsego,49078,Landfill,Yes,Ray Spaulding,spauldingr1@michigan.gov,517-290-2401,https://www.michigan.gov/pfasresponse/investigations/sites-aoi/allegan-county/menasha-landfill,-85.683862,42.46874,,Site,Final,,No,,,2023/05/10 00:00:00+00,{6C2490BF-485B-4191-A515-0BA9E8D3708D},,,,17394
633364.7716,187968.8458,Michner Plating – Angling Road,Jackson County,1725 Angling Rd.,Jackson,49203,Plating,Yes,Zachary McCurley,McCurleyZ1@michigan.gov,517-290-2555,https://www.michigan.gov/pfasresponse/investigations/sites-aoi/jackson-county/michner-plating-angling-road,-84.38258536,42.23033975,,Site,Final,,No,,,2023/05/22 00:00:00+00,{C3D7D954-51C2-4286-B02B-23F9E003B4F1},,,,17793
537469.128,286612.6258,5312 11 Mile Road NE,Kent County,5312 11 Mile Road NE,Rockford,49341,Tannery,Yes,Leah Gies,GiesL1@Michigan.gov,616-215-4781,https://www.michigan.gov/pfasresponse/investigations/sites-aoi/kent-county/5312-11-mile-road-ne,-85.53764,43.12960876,,Site,Final,,No,,,2021/05/31 00:00:00+00,{3260842B-A3C4-42E1-8B82-9B097F273905},,,,18193
490207.9463,295510.4492,Bofors Nobel,Muskegon County,5025 Evanston Avenue,Egelston Township,49443,Industrial,No,Mark Reimann,ReimannM@michigan.gov,517-290-9379,https://www.michigan.gov/pfasresponse/investigations/sites-aoi/muskegon-county/bofors-nobel,-86.11878348,43.21070886,,Site,Final,,No,,,2023/05/31 00:00:00+00,{2B1F99B5-E901-49F5-8760-60268218D64B},,,,18593
310891.9377,746897.1005,North Houghton County Water and Sewer Authority Wastewater Treatment Plant,Houghton County,23749 Highway M-203,Calumet,49913,Wastewater,No,Kevin Wojciechowski,WojciechowskiK@Michigan.gov,586-623-2948,https://www.michigan.gov/pfasresponse/investigations/sites-aoi/houghton-county/north-houghton-county-wsawtp,-88.497,47.247,,Site,Final,,No,,,2023/06/09 00:00:00+00,{9CC88D03-1300-411D-A438-3FEB3F3423AF},,,,18993
609860.7041,438904.2659,Roscommon Area Public Schools WWTP,Roscommon County,175 West Sunset Drive,Roscommon,48653,Wastewater,Yes,Kevin Wojciechowski,wojciechowskik@michigan.gov,586-623-2948,https://www.michigan.gov/pfasresponse/investigations/sites-aoi/roscommon-county/roscommon-area-public-schools-wwtp,-84.616159,44.493351,,Site,Final,Roscommon,No,,,2023/06/14 00:00:00+00,{36286643-1C8D-4693-B886-B9AE05E30B16},,,,19393
563054.5633,464200.0717,Kalkaska WWTP,Kalkaska County,1005 Island Lake Road NW,Kalkaska,49646,Wastewater,Yes,Kevin Wojciechowski,wojciechowskik@michigan.gov,586-753-3891,https://www.michigan.gov/pfasresponse/investigations/sites-aoi/kalkaska-county/kalkaska-wwtp,-85.201707,44.726694,,Site,Final,Kalkaska,No,,,2023/06/14 00:00:00+00,{D565614D-140F-420B-A280-9566770035DC},,,,19394
666549.1816,207285.8011,Multi Lake Water and Sewer Authority Wastewater Treatment Plant,Washtenaw County,12088 North Territorial Road,Dexter,48130,Wastewater,Yes,Kevin Wojciechowski,WojciechowskiK@Michigan.gov,586-623-2948,https://www.michigan.gov/pfasresponse/investigations/sites-aoi/washtenaw-county/multi-lake-wsawtp,-83.97485383,42.39770524,,Site,Final,Dexter,No,,,2023/06/23 00:00:00+00,{5C178E81-EBE2-45EB-BD80-3BB131434BDE},,,,19793
